~Version
VERS. 2.0
WRAP. NO
~Well
STRT.M 0.82
STOP.M 59.52
STEP.M 0.02
NULL. -999.0
WELL. SYNTH_A
DATE. 2025-12-31
~Curve
DEPT.M
GR.CPS
CL.IN
LD.CPS
SD.CPS
~A
# ...
38.74 20.00000 2.18039 1464.00000 14558.00000
38.76 20.00000 2.18989 1452.00000 14610.00000
38.78 28.00000 2.18989 1500.00000 14512.00000
38.80 30.00000 2.18989 1524.00000 14294.00000
38.82 22.00000 2.18989 1476.00000 14176.00000
38.84 24.00000 2.18989 1464.00000 14176.00000
38.86 24.00000 2.18989 1452.00000 14204.00000
38.88 24.00000 2.18989 1502.00000 14448.00000
38.90 22.00000 2.18989 1408.00000 14410.00000
38.92 22.00000 2.18989 1372.00000 14376.00000
38.94 26.00000 2.18989 1390.00000 14270.00000
38.96 28.00000 2.18989 1424.00000 14378.00000
38.98 22.00000 2.18989 1422.00000 14262.00000
39.00 26.00000 2.18989 1458.00000 14182.00000
39.02 24.00000 2.18989 1512.00000 14292.00000
39.04 18.00000 2.18989 1568.00000 14168.00000
39.06 18.00000 2.18989 1484.00000 14234.00000
39.08 22.00000 2.18989 1430.00000 14154.00000
39.10 24.00000 2.18989 1426.00000 14330.00000
39.12 24.00000 2.18989 1496.00000 14174.00000
39.14 20.00000 2.18989 1474.00000 14214.00000
39.16 24.00000 2.15191 1398.00000 14166.00000
39.18 24.00000 2.15191 1384.00000 14104.00000
39.20 30.00000 2.18039 1400.00000 14102.00000
39.22 34.00000 2.18989 1420.00000 14256.00000
39.24 38.00000 2.18989 1352.00000 14162.00000
39.26 32.00000 2.18989 1344.00000 14026.00000
39.28 30.00000 2.18039 1292.00000 13956.00000
39.30 24.00000 2.18039 1340.00000 13946.00000
39.32 16.00000 2.18989 1288.00000 13810.00000
39.34 16.00000 2.17090 1384.00000 13926.00000
39.36 18.00000 2.17090 1376.00000 13972.00000
39.38 32.00000 2.18989 1424.00000 14024.00000
39.40 32.00000 2.17090 1394.00000 13974.00000
39.42 32.00000 2.17090 1414.00000 14250.00000
39.44 42.00000 2.18989 1432.00000 14216.00000
39.46 26.00000 2.18039 1388.00000 14042.00000
39.48 24.00000 2.18039 1358.00000 13960.00000
39.50 36.00000 2.16141 1368.00000 14008.00000
39.52 32.00000 2.17090 1416.00000 14248.00000
39.54 22.00000 2.18989 1490.00000 14334.00000
39.56 18.00000 2.18989 1430.00000 14702.00000
39.58 20.00000 2.18989 1458.00000 14722.00000
39.60 26.00000 2.18989 1446.00000 14502.00000
39.62 24.00000 2.18039 1472.00000 14488.00000
39.64 26.00000 2.17090 1526.00000 14550.00000
39.66 22.00000 2.17090 1476.00000 14412.00000
39.68 22.00000 2.17090 1500.00000 14500.00000
39.70 26.00000 2.17090 1486.00000 14596.00000
39.72 22.00000 2.18989 1456.00000 14644.00000
39.74 36.00000 2.18989 1482.00000 14548.00000
39.76 42.00000 2.18039 1420.00000 14436.00000
39.78 22.00000 2.18039 1404.00000 14412.00000
39.80 30.00000 2.18989 1474.00000 14292.00000
39.82 32.00000 2.18989 1452.00000 14142.00000
39.84 26.00000 2.18039 1422.00000 14366.00000
39.86 32.00000 2.18039 1488.00000 14656.00000
39.88 42.00000 2.17090 1434.00000 14710.00000
39.90 40.00000 2.17090 1282.00000 14808.00000
39.92 34.00000 2.18039 1206.00000 14872.00000
39.94 36.00000 2.17090 1172.00000 14664.00000
39.96 38.00000 2.17090 1102.00000 14294.00000
39.98 40.00000 2.17090 1064.00000 13450.00000
40.00 34.00000 2.18989 1048.00000 12700.00000
40.02 22.00000 2.18989 998.00000 11912.00000
40.04 18.00000 2.18989 1082.00000 11578.00000
40.06 24.00000 2.18989 1030.00000 11346.00000
40.08 24.00000 2.18989 1038.00000 10994.00000
40.10 18.00000 2.18989 980.00000 11124.00000
40.12 20.00000 2.18039 1048.00000 11842.00000
40.14 28.00000 2.18039 1044.00000 12486.00000
40.16 46.00000 2.18989 1006.00000 13182.00000
40.18 46.00000 2.18989 1062.00000 13838.00000
40.20 22.00000 2.18989 1084.00000 14122.00000
40.22 20.00000 2.18989 1156.00000 14148.00000
40.24 24.00000 2.18989 1148.00000 13884.00000
40.26 42.00000 2.18989 1220.00000 13998.00000
40.28 50.00000 2.18989 1258.00000 14198.00000
40.30 48.00000 2.19938 1322.00000 14438.00000
40.32 48.00000 2.19938 1396.00000 14312.00000
40.34 40.00000 2.18989 1394.00000 14240.00000
40.36 30.00000 2.18039 1394.00000 14298.00000
40.38 20.00000 2.18039 1442.00000 14324.00000
40.40 18.00000 2.18039 1558.00000 14612.00000
40.42 32.00000 2.18989 1518.00000 14488.00000
40.44 56.00000 2.18989 1410.00000 14510.00000
40.46 48.00000 2.18989 1376.00000 14610.00000
40.48 18.00000 2.18989 1412.00000 14634.00000
40.50 16.00000 2.18989 1472.00000 14694.00000
40.52 20.00000 2.18989 1478.00000 14532.00000
40.54 20.00000 2.18989 1428.00000 14240.00000
40.56 24.00000 2.18039 1364.00000 14196.00000
40.58 30.00000 2.18039 1336.00000 14132.00000
40.60 28.00000 2.18039 1398.00000 14122.00000
40.62 30.00000 2.17090 1408.00000 14076.00000
40.64 38.00000 2.16141 1426.00000 13924.00000
40.66 56.00000 2.18039 1334.00000 13900.00000
40.68 60.00000 2.16141 1272.00000 13996.00000
40.70 48.00000 2.16141 1314.00000 14026.00000
40.72 46.00000 2.18039 1424.00000 13938.00000
40.74 38.00000 2.17090 1458.00000 13920.00000
40.76 38.00000 2.18039 1420.00000 13962.00000
40.78 30.00000 2.18989 1406.00000 14174.00000
40.80 42.00000 2.18989 1382.00000 14418.00000
40.82 30.00000 2.18989 1400.00000 14538.00000
40.84 34.00000 2.18989 1442.00000 14346.00000
40.86 48.00000 2.17090 1454.00000 14428.00000
40.88 50.00000 2.17090 1480.00000 14276.00000
40.90 30.00000 2.18989 1494.00000 14252.00000
40.92 24.00000 2.18989 1392.00000 14324.00000
40.94 36.00000 2.18989 1430.00000 14198.00000
40.96 48.00000 2.18989 1442.00000 14394.00000
40.98 50.00000 2.18989 1514.00000 14362.00000
41.00 42.00000 2.18989 1440.00000 13998.00000
41.02 46.00000 2.18039 1376.00000 13844.00000
41.04 44.00000 2.18039 1368.00000 13886.00000
41.06 38.00000 2.18039 1314.00000 13890.00000
41.08 40.00000 2.16141 1248.00000 13968.00000
41.10 34.00000 2.17090 1328.00000 14180.00000
41.12 34.00000 2.17090 1438.00000 14118.00000
41.14 34.00000 2.17090 1418.00000 13926.00000
41.16 50.00000 2.18039 1422.00000 13900.00000
41.18 46.00000 2.18039 1400.00000 13984.00000
41.20 38.00000 2.18989 1398.00000 14342.00000
41.22 40.00000 2.18039 1454.00000 14316.00000
41.24 40.00000 2.18039 1440.00000 14262.00000
41.26 46.00000 2.18989 1444.00000 14140.00000
41.28 46.00000 2.16141 1456.00000 14240.00000
41.30 38.00000 2.16141 1468.00000 14246.00000
41.32 38.00000 2.17090 1398.00000 13988.00000
41.34 40.00000 2.18989 1312.00000 14016.00000
41.36 42.00000 2.18989 1288.00000 14080.00000
41.38 38.00000 2.18989 1320.00000 13874.00000
41.40 44.00000 2.17090 1364.00000 13810.00000
41.42 40.00000 2.16141 1372.00000 13822.00000
41.44 44.00000 2.18039 1300.00000 14010.00000
41.46 48.00000 2.18039 1268.00000 14022.00000
41.48 66.00000 2.17090 1270.00000 14140.00000
41.50 66.00000 2.17090 1338.00000 14168.00000
41.52 56.00000 2.18989 1306.00000 14212.00000
41.54 54.00000 2.18039 1276.00000 14328.00000
41.56 50.00000 2.18039 1326.00000 14164.00000
41.58 52.00000 2.18989 1392.00000 14202.00000
41.60 42.00000 2.17090 1374.00000 14228.00000
41.62 44.00000 2.17090 1392.00000 14222.00000
41.64 50.00000 2.17090 1370.00000 14370.00000
41.66 44.00000 2.17090 1408.00000 14398.00000
41.68 22.00000 2.18039 1388.00000 14372.00000
41.70 24.00000 2.17090 1322.00000 14434.00000
41.72 26.00000 2.17090 1324.00000 14472.00000
41.74 30.00000 2.18039 1342.00000 14334.00000
41.76 42.00000 2.16141 1286.00000 14188.00000
41.78 52.00000 2.17090 1310.00000 14258.00000
41.80 58.00000 2.17090 1410.00000 14042.00000
41.82 38.00000 2.16141 1448.00000 14084.00000
41.84 40.00000 2.17090 1314.00000 13998.00000
41.86 46.00000 2.16141 1310.00000 13792.00000
41.88 30.00000 2.18039 1290.00000 13734.00000
41.90 32.00000 2.16141 1324.00000 13762.00000
41.92 40.00000 2.17090 1322.00000 13730.00000
41.94 50.00000 2.16141 1304.00000 13924.00000
41.96 60.00000 2.17090 1238.00000 14034.00000
41.98 44.00000 2.18989 1212.00000 14052.00000
42.00 48.00000 2.17090 1234.00000 14154.00000
42.02 40.00000 2.17090 1294.00000 14128.00000
42.04 38.00000 2.18039 1312.00000 14198.00000
42.06 34.00000 2.18039 1284.00000 13988.00000
42.08 38.00000 2.18989 1208.00000 13868.00000
42.10 34.00000 2.18989 1188.00000 13476.00000
42.12 36.00000 2.18989 1174.00000 13104.00000
42.14 32.00000 2.17090 1160.00000 12622.00000
42.16 22.00000 2.17090 1154.00000 12678.00000
42.18 24.00000 2.18039 1152.00000 12772.00000
42.20 38.00000 2.18039 1174.00000 12782.00000
