~Version
VERS. 2.0
WRAP. NO
~Well
STRT.M 0.27
STOP.M 59.83
STEP.M 0.02
NULL. -999.0
WELL. SYNTH_B
DATE. 2025-12-31
~Curve
DEPT.M
GR.CPS
CL.IN
LD.CPS
SD.CPS
~A
# ...
10.86 22.00000 1.52533 1690.00000 15018.00000
10.88 26.00000 1.52533 1660.00000 15142.00000
10.90 28.00000 1.51584 1654.00000 14846.00000
10.92 30.00000 1.51584 1630.00000 14710.00000
10.94 26.00000 1.52533 1658.00000 14688.00000
10.96 18.00000 1.51584 1624.00000 14762.00000
10.98 28.00000 1.51584 1578.00000 14900.00000
11.00 24.00000 1.51584 1588.00000 14714.00000
11.02 26.00000 1.52533 1576.00000 14682.00000
11.04 24.00000 1.52533 1618.00000 14578.00000
11.06 24.00000 1.52533 1542.00000 14520.00000
11.08 28.00000 1.52533 1550.00000 14700.00000
11.10 26.00000 1.51584 1524.00000 14414.00000
11.12 38.00000 1.51584 1604.00000 14434.00000
11.14 44.00000 1.52533 1566.00000 14218.00000
11.16 28.00000 1.53483 1572.00000 14554.00000
11.18 24.00000 1.53483 1644.00000 14698.00000
11.20 16.00000 1.53483 1646.00000 14820.00000
11.22 20.00000 1.52533 1618.00000 14766.00000
11.24 16.00000 1.52533 1624.00000 14676.00000
11.26 22.00000 1.52533 1618.00000 14718.00000
11.28 22.00000 1.52533 1648.00000 14734.00000
11.30 20.00000 1.52533 1618.00000 14820.00000
11.32 28.00000 1.52533 1594.00000 14784.00000
11.34 38.00000 1.52533 1568.00000 14652.00000
11.36 40.00000 1.52533 1568.00000 14626.00000
11.38 28.00000 1.51584 1576.00000 14572.00000
11.40 24.00000 1.51584 1576.00000 14424.00000
11.42 20.00000 1.51584 1574.00000 14344.00000
11.44 28.00000 1.52533 1480.00000 14304.00000
11.46 42.00000 1.52533 1464.00000 14466.00000
11.48 38.00000 1.52533 1502.00000 14530.00000
11.50 38.00000 1.52533 1516.00000 14374.00000
11.52 26.00000 1.52533 1516.00000 14340.00000
11.54 40.00000 1.52533 1546.00000 14154.00000
11.56 40.00000 1.52533 1648.00000 14326.00000
11.58 36.00000 1.52533 1584.00000 14414.00000
11.60 24.00000 1.52533 1570.00000 14690.00000
11.62 24.00000 1.52533 1442.00000 14570.00000
11.64 28.00000 1.52533 1548.00000 14484.00000
11.66 30.00000 1.52533 1586.00000 14096.00000
11.68 36.00000 1.52533 1508.00000 14206.00000
11.70 42.00000 1.52533 1468.00000 14334.00000
11.72 48.00000 1.52533 1458.00000 14396.00000
11.74 46.00000 1.52533 1546.00000 14410.00000
11.76 44.00000 1.52533 1634.00000 14210.00000
11.78 34.00000 1.52533 1646.00000 14206.00000
11.80 36.00000 1.52533 1600.00000 14146.00000
11.82 26.00000 1.52533 1500.00000 14318.00000
11.84 30.00000 1.52533 1444.00000 14292.00000
11.86 30.00000 1.52533 1440.00000 14432.00000
11.88 32.00000 1.52533 1462.00000 14452.00000
11.90 26.00000 1.52533 1570.00000 14410.00000
11.92 30.00000 1.52533 1578.00000 14294.00000
11.94 30.00000 1.52533 1568.00000 14188.00000
11.96 30.00000 1.52533 1506.00000 14236.00000
11.98 24.00000 1.52533 1498.00000 14300.00000
12.00 34.00000 1.52533 1478.00000 14440.00000
12.02 34.00000 1.51584 1492.00000 14410.00000
12.04 30.00000 1.51584 1550.00000 14530.00000
12.06 20.00000 1.52533 1588.00000 14424.00000
12.08 20.00000 1.51584 1604.00000 14428.00000
12.10 22.00000 1.51584 1606.00000 14342.00000
12.12 38.00000 1.51584 1650.00000 14470.00000
12.14 42.00000 1.52533 1610.00000 14658.00000
12.16 40.00000 1.52533 1618.00000 14852.00000
12.18 42.00000 1.51584 1652.00000 14962.00000
12.20 44.00000 1.51584 1668.00000 14858.00000
12.22 44.00000 1.51584 1664.00000 15070.00000
12.24 38.00000 1.52533 1588.00000 15050.00000
12.26 36.00000 1.52533 1600.00000 15050.00000
12.28 38.00000 1.52533 1658.00000 15072.00000
12.30 46.00000 1.52533 1748.00000 15106.00000
12.32 56.00000 1.52533 1794.00000 15106.00000
12.34 48.00000 1.52533 1822.00000 14930.00000
12.36 38.00000 1.52533 1786.00000 14816.00000
12.38 34.00000 1.51584 1826.00000 14718.00000
12.40 24.00000 1.51584 1766.00000 14584.00000
12.42 22.00000 1.51584 1702.00000 14742.00000
12.44 30.00000 1.52533 1648.00000 14910.00000
12.46 34.00000 1.50634 1644.00000 15056.00000
12.48 46.00000 1.50634 1690.00000 15154.00000
12.50 30.00000 1.50634 1706.00000 14922.00000
12.52 32.00000 1.52533 1644.00000 14744.00000
12.54 30.00000 1.52533 1628.00000 14738.00000
12.56 32.00000 1.52533 1608.00000 14870.00000
12.58 38.00000 1.52533 1672.00000 14970.00000
12.60 28.00000 1.52533 1598.00000 14932.00000
12.62 24.00000 1.52533 1630.00000 14924.00000
12.64 22.00000 1.52533 1636.00000 14868.00000
12.66 34.00000 1.52533 1596.00000 15042.00000
12.68 38.00000 1.52533 1560.00000 14908.00000
12.70 32.00000 1.52533 1562.00000 14694.00000
12.72 16.00000 1.53483 1566.00000 14598.00000
12.74 22.00000 1.53483 1652.00000 14720.00000
12.76 32.00000 1.53483 1692.00000 14736.00000
12.78 48.00000 1.52533 1670.00000 14772.00000
12.80 44.00000 1.52533 1632.00000 14722.00000
12.82 32.00000 1.52533 1560.00000 14690.00000
12.84 32.00000 1.52533 1634.00000 14748.00000
12.86 34.00000 1.52533 1566.00000 14804.00000
12.88 26.00000 1.52533 1564.00000 14750.00000
12.90 28.00000 1.52533 1550.00000 14520.00000
12.92 28.00000 1.52533 1590.00000 14520.00000
12.94 38.00000 1.52533 1682.00000 14592.00000
12.96 34.00000 1.52533 1734.00000 14546.00000
12.98 36.00000 1.52533 1726.00000 14372.00000
13.00 20.00000 1.52533 1696.00000 14288.00000
13.02 18.00000 1.52533 1642.00000 14590.00000
13.04 24.00000 1.52533 1696.00000 14624.00000
13.06 34.00000 1.51584 1684.00000 14696.00000
13.08 34.00000 1.49685 1652.00000 14738.00000
13.10 38.00000 1.47786 1626.00000 15084.00000
13.12 40.00000 1.48736 1648.00000 15058.00000
13.14 38.00000 1.52533 1724.00000 15162.00000
13.16 36.00000 1.52533 1806.00000 15046.00000
13.18 38.00000 1.52533 1900.00000 15100.00000
13.20 34.00000 1.52533 1924.00000 15278.00000
13.22 26.00000 1.52533 1950.00000 15346.00000
13.24 26.00000 1.52533 1846.00000 15542.00000
13.26 36.00000 1.52533 1820.00000 15554.00000
13.28 32.00000 1.52533 1898.00000 15684.00000
13.30 38.00000 1.52533 1936.00000 15804.00000
13.32 32.00000 1.52533 2072.00000 15784.00000
13.34 40.00000 1.52533 2022.00000 15750.00000
13.36 40.00000 1.52533 2040.00000 15946.00000
13.38 48.00000 1.52533 1944.00000 15728.00000
13.40 42.00000 1.52533 1982.00000 15730.00000
13.42 36.00000 1.51584 2046.00000 15324.00000
13.44 32.00000 1.51584 2046.00000 15280.00000
13.46 28.00000 1.51584 1996.00000 15216.00000
13.48 22.00000 1.52533 1976.00000 15132.00000
13.50 22.00000 1.52533 1972.00000 15000.00000
13.52 22.00000 1.52533 1844.00000 15302.00000
13.54 30.00000 1.52533 1852.00000 15378.00000
13.56 34.00000 1.51584 1840.00000 15624.00000
13.58 40.00000 1.51584 1908.00000 15350.00000
13.60 34.00000 1.51584 1966.00000 15164.00000
13.62 34.00000 1.52533 1968.00000 15092.00000
13.64 48.00000 1.52533 2000.00000 15234.00000
13.66 48.00000 1.52533 1952.00000 15314.00000
13.68 48.00000 1.52533 1938.00000 15312.00000
13.70 32.00000 1.50634 1920.00000 15308.00000
13.72 32.00000 1.50634 1880.00000 15228.00000
13.74 20.00000 1.52533 1938.00000 15266.00000
13.76 20.00000 1.52533 1932.00000 15230.00000
13.78 22.00000 1.52533 1924.00000 15258.00000
13.80 40.00000 1.52533 1896.00000 15504.00000
13.82 44.00000 1.52533 1962.00000 15672.00000
13.84 40.00000 1.52533 2120.00000 15662.00000
13.86 36.00000 1.52533 2124.00000 15352.00000
13.88 42.00000 1.52533 2196.00000 15080.00000
13.90 46.00000 1.52533 2230.00000 15200.00000
13.92 54.00000 1.52533 2350.00000 15520.00000
13.94 58.00000 1.52533 2328.00000 15810.00000
13.96 54.00000 1.52533 2372.00000 16192.00000
13.98 48.00000 1.52533 2382.00000 16414.00000
14.00 38.00000 1.52533 2364.00000 17140.00000
14.02 34.00000 1.52533 2294.00000 17510.00000
14.04 26.00000 1.52533 2268.00000 17532.00000
14.06 36.00000 1.52533 2312.00000 17148.00000
14.08 42.00000 1.52533 2420.00000 17064.00000
14.10 52.00000 1.52533 2430.00000 16480.00000
14.12 42.00000 1.50634 2408.00000 16136.00000
14.14 34.00000 1.50634 2358.00000 15878.00000
14.16 24.00000 1.52533 2338.00000 15636.00000
14.18 30.00000 1.52533 2252.00000 15536.00000
14.20 28.00000 1.52533 2154.00000 15390.00000
14.22 32.00000 1.52533 2138.00000 15490.00000
14.24 38.00000 1.52533 2060.00000 15484.00000
14.26 38.00000 1.52533 1982.00000 15692.00000
14.28 44.00000 1.50634 1902.00000 15660.00000
14.30 46.00000 1.50634 1906.00000 15646.00000
14.32 50.00000 1.52533 1828.00000 15702.00000
