~Version
VERS. 2.0
WRAP. NO
~Well
STRT.M 0.82
STOP.M 59.52
STEP.M 0.02
NULL. -999.0
WELL. SYNTH_A
DATE. 2025-12-31
~Curve
DEPT.M
GR.CPS
CL.IN
LD.CPS
SD.CPS
~A
# ...
24.78 22.00000 2.22786 1330.00000 14384.00000
24.80 28.00000 2.22786 1316.00000 14464.00000
24.82 20.00000 2.22786 1402.00000 14334.00000
24.84 20.00000 2.22786 1392.00000 14552.00000
24.86 12.00000 2.22786 1350.00000 14448.00000
24.88 28.00000 2.22786 1272.00000 14370.00000
24.90 36.00000 2.23735 1234.00000 14068.00000
24.92 34.00000 2.23735 1248.00000 14204.00000
24.94 32.00000 2.23735 1242.00000 14254.00000
24.96 24.00000 2.23735 1266.00000 14266.00000
24.98 22.00000 2.22786 1264.00000 14050.00000
25.00 20.00000 2.21837 1266.00000 13788.00000
25.02 26.00000 2.21837 1252.00000 13766.00000
25.04 22.00000 2.20887 1260.00000 13874.00000
25.06 16.00000 2.21837 1238.00000 14070.00000
25.08 16.00000 2.21837 1244.00000 14054.00000
25.10 22.00000 2.23735 1318.00000 13854.00000
25.12 18.00000 2.21837 1300.00000 13794.00000
25.14 26.00000 2.21837 1222.00000 13904.00000
25.16 18.00000 2.22786 1112.00000 14214.00000
25.18 32.00000 2.23735 1052.00000 14216.00000
25.20 24.00000 2.22786 1058.00000 13936.00000
25.22 24.00000 2.22786 1034.00000 13596.00000
25.24 12.00000 2.23735 980.00000 13340.00000
25.26 18.00000 2.21837 906.00000 13022.00000
25.28 20.00000 2.21837 904.00000 12684.00000
25.30 30.00000 2.21837 882.00000 12342.00000
25.32 30.00000 2.23735 892.00000 12164.00000
25.34 24.00000 2.23735 890.00000 12080.00000
25.36 20.00000 2.23735 924.00000 12158.00000
25.38 18.00000 2.22786 888.00000 12224.00000
25.40 14.00000 2.22786 914.00000 12234.00000
25.42 8.00000 2.21837 808.00000 12390.00000
25.44 12.00000 2.22786 788.00000 12448.00000
25.46 12.00000 2.22786 706.00000 12408.00000
25.48 10.00000 2.22786 770.00000 12276.00000
25.50 16.00000 2.22786 742.00000 11884.00000
25.52 22.00000 2.22786 766.00000 11834.00000
25.54 32.00000 2.23735 766.00000 11716.00000
25.56 28.00000 2.22786 786.00000 11842.00000
25.58 36.00000 2.22786 766.00000 11900.00000
25.60 26.00000 2.22786 826.00000 11932.00000
25.62 26.00000 2.22786 858.00000 12088.00000
25.64 18.00000 2.21837 880.00000 12174.00000
25.66 18.00000 2.22786 920.00000 12470.00000
25.68 22.00000 2.21837 936.00000 12450.00000
25.70 22.00000 2.22786 924.00000 12386.00000
25.72 26.00000 2.22786 940.00000 12446.00000
25.74 22.00000 2.22786 1026.00000 12836.00000
25.76 24.00000 2.22786 1136.00000 13602.00000
25.78 18.00000 2.22786 1152.00000 13984.00000
25.80 20.00000 2.22786 1178.00000 14330.00000
25.82 30.00000 2.22786 1182.00000 14268.00000
25.84 40.00000 2.23735 1258.00000 14542.00000
25.86 50.00000 2.22786 1330.00000 14548.00000
25.88 48.00000 2.21837 1432.00000 14518.00000
25.90 38.00000 2.21837 1406.00000 14518.00000
25.92 28.00000 2.21837 1398.00000 14632.00000
25.94 28.00000 2.21837 1396.00000 14562.00000
25.96 26.00000 2.21837 1408.00000 14556.00000
25.98 34.00000 2.21837 1502.00000 14694.00000
26.00 34.00000 2.21837 1518.00000 14616.00000
26.02 24.00000 2.20887 1472.00000 14740.00000
26.04 22.00000 2.21837 1466.00000 14674.00000
26.06 26.00000 2.21837 1412.00000 14998.00000
26.08 32.00000 2.22786 1398.00000 14796.00000
26.10 28.00000 2.22786 1412.00000 14518.00000
26.12 26.00000 2.22786 1460.00000 14452.00000
26.14 12.00000 2.22786 1470.00000 14830.00000
26.16 28.00000 2.22786 1514.00000 14842.00000
26.18 26.00000 2.21837 1510.00000 15218.00000
26.20 44.00000 2.21837 1450.00000 15032.00000
26.22 40.00000 2.22786 1370.00000 15044.00000
26.24 44.00000 2.22786 1374.00000 14912.00000
26.26 40.00000 2.22786 1382.00000 14830.00000
26.28 36.00000 2.21837 1454.00000 14818.00000
26.30 30.00000 2.21837 1474.00000 14938.00000
26.32 22.00000 2.21837 1406.00000 14680.00000
26.34 16.00000 2.21837 1300.00000 14542.00000
26.36 16.00000 2.21837 1230.00000 14536.00000
26.38 18.00000 2.21837 1218.00000 14618.00000
26.40 20.00000 2.22786 1218.00000 14514.00000
26.42 26.00000 2.22786 1188.00000 14336.00000
26.44 24.00000 2.22786 1206.00000 13836.00000
26.46 22.00000 2.21837 1096.00000 13580.00000
26.48 16.00000 2.22786 1016.00000 13226.00000
26.50 20.00000 2.22786 982.00000 12778.00000
26.52 18.00000 2.21837 994.00000 12198.00000
26.54 18.00000 2.20887 980.00000 11912.00000
26.56 14.00000 2.20887 980.00000 11788.00000
26.58 28.00000 2.19938 976.00000 11832.00000
26.60 26.00000 2.18989 990.00000 12140.00000
26.62 20.00000 2.18989 936.00000 12292.00000
26.64 14.00000 2.19938 906.00000 12448.00000
26.66 8.00000 2.20887 986.00000 12666.00000
26.68 10.00000 2.21837 1036.00000 13452.00000
26.70 20.00000 2.19938 1150.00000 14046.00000
26.72 22.00000 2.20887 1202.00000 14072.00000
26.74 28.00000 2.21837 1182.00000 13886.00000
26.76 18.00000 2.22786 1262.00000 14084.00000
26.78 24.00000 2.20887 1286.00000 14092.00000
26.80 16.00000 2.19938 1452.00000 14338.00000
26.82 16.00000 2.18989 1458.00000 14282.00000
26.84 16.00000 2.20887 1440.00000 14272.00000
26.86 36.00000 2.20887 1528.00000 14432.00000
26.88 42.00000 2.21837 1544.00000 14498.00000
26.90 38.00000 2.19938 1576.00000 14506.00000
26.92 32.00000 2.18989 1574.00000 14614.00000
26.94 32.00000 2.19938 1536.00000 14620.00000
26.96 34.00000 2.20887 1520.00000 14694.00000
26.98 44.00000 2.21837 1494.00000 14500.00000
27.00 50.00000 2.22786 1582.00000 14670.00000
27.02 36.00000 2.23735 1570.00000 14750.00000
27.04 26.00000 2.22786 1536.00000 14544.00000
27.06 22.00000 2.22786 1514.00000 14504.00000
27.08 26.00000 2.21837 1458.00000 14540.00000
27.10 24.00000 2.21837 1514.00000 14744.00000
27.12 38.00000 2.21837 1482.00000 14630.00000
27.14 48.00000 2.21837 1554.00000 14780.00000
27.16 46.00000 2.21837 1588.00000 14716.00000
27.18 36.00000 2.21837 1606.00000 14924.00000
27.20 36.00000 2.22786 1588.00000 14872.00000
27.22 38.00000 2.21837 1672.00000 14858.00000
27.24 32.00000 2.21837 1720.00000 14718.00000
27.26 34.00000 2.21837 1634.00000 14870.00000
27.28 32.00000 2.21837 1668.00000 14806.00000
27.30 28.00000 2.21837 1670.00000 15250.00000
27.32 32.00000 2.21837 1664.00000 14946.00000
27.34 30.00000 2.21837 1706.00000 14942.00000
27.36 32.00000 2.21837 1628.00000 14938.00000
27.38 32.00000 2.21837 1584.00000 15006.00000
27.40 38.00000 2.21837 1560.00000 14966.00000
27.42 46.00000 2.22786 1644.00000 14864.00000
27.44 36.00000 2.23735 1712.00000 14722.00000
27.46 34.00000 2.23735 1650.00000 14544.00000
27.48 26.00000 2.21837 1676.00000 14526.00000
27.50 32.00000 2.19938 1686.00000 14682.00000
27.52 42.00000 2.18989 1658.00000 14984.00000
27.54 52.00000 2.20887 1600.00000 14860.00000
27.56 48.00000 2.21837 1596.00000 14640.00000
27.58 38.00000 2.21837 1544.00000 14474.00000
27.60 34.00000 2.20887 1550.00000 14428.00000
27.62 46.00000 2.19938 1546.00000 14396.00000
27.64 42.00000 2.19938 1584.00000 14470.00000
27.66 38.00000 2.18989 1528.00000 14382.00000
27.68 44.00000 2.18989 1490.00000 14312.00000
27.70 44.00000 2.18989 1528.00000 14332.00000
27.72 44.00000 2.18989 1556.00000 14492.00000
27.74 54.00000 2.18989 1480.00000 14434.00000
27.76 52.00000 2.20887 1422.00000 14700.00000
27.78 44.00000 2.21837 1388.00000 14626.00000
27.80 46.00000 2.21837 1428.00000 14708.00000
27.82 46.00000 2.19938 1504.00000 14448.00000
27.84 54.00000 2.19938 1572.00000 14484.00000
27.86 52.00000 2.20887 1582.00000 14216.00000
27.88 54.00000 2.20887 1552.00000 14136.00000
27.90 40.00000 2.20887 1492.00000 14052.00000
27.92 42.00000 2.19938 1452.00000 14364.00000
27.94 30.00000 2.20887 1434.00000 14420.00000
27.96 36.00000 2.21837 1462.00000 14218.00000
27.98 42.00000 2.20887 1430.00000 14320.00000
28.00 42.00000 2.19938 1436.00000 14378.00000
28.02 34.00000 2.18989 1428.00000 14472.00000
28.04 44.00000 2.19938 1388.00000 14226.00000
28.06 44.00000 2.20887 1310.00000 14078.00000
28.08 44.00000 2.21837 1286.00000 13886.00000
28.10 32.00000 2.20887 1274.00000 14016.00000
28.12 24.00000 2.22786 1230.00000 13924.00000
28.14 34.00000 2.20887 1120.00000 13752.00000
28.16 40.00000 2.21837 1060.00000 13492.00000
28.18 24.00000 2.20887 1064.00000 13458.00000
28.20 24.00000 2.22786 1044.00000 13326.00000
28.22 38.00000 2.21837 1052.00000 12674.00000
28.24 38.00000 2.21837 952.00000 12034.00000
28.26 40.00000 2.22786 894.00000 11660.00000
