~Version
VERS. 2.0
WRAP. NO
~Well
STRT.M 0.27
STOP.M 59.83
STEP.M 0.02
NULL. -999.0
WELL. SYNTH_B
DATE. 2025-12-31
~Curve
DEPT.M
GR.CPS
CL.IN
LD.CPS
SD.CPS
~A
# ...
38.72 44.00000 1.28799 1676.00000 15360.00000
38.74 44.00000 1.27850 1638.00000 15250.00000
38.76 32.00000 1.27850 1634.00000 15078.00000
38.78 22.00000 1.27850 1674.00000 14770.00000
38.80 24.00000 1.28799 1714.00000 14826.00000
38.82 26.00000 1.28799 1728.00000 15130.00000
38.84 22.00000 1.27850 1662.00000 15278.00000
38.86 24.00000 1.27850 1630.00000 15400.00000
38.88 32.00000 1.27850 1664.00000 15170.00000
38.90 58.00000 1.28799 1752.00000 15070.00000
38.92 56.00000 1.28799 1760.00000 15068.00000
38.94 44.00000 1.27850 1644.00000 14984.00000
38.96 36.00000 1.27850 1674.00000 14826.00000
38.98 38.00000 1.27850 1636.00000 14702.00000
39.00 30.00000 1.28799 1652.00000 14792.00000
39.02 24.00000 1.27850 1690.00000 14812.00000
39.04 18.00000 1.27850 1742.00000 14928.00000
39.06 18.00000 1.27850 1720.00000 14982.00000
39.08 24.00000 1.27850 1626.00000 15002.00000
39.10 28.00000 1.27850 1604.00000 14944.00000
39.12 32.00000 1.27850 1578.00000 15100.00000
39.14 34.00000 1.27850 1624.00000 15018.00000
39.16 24.00000 1.27850 1632.00000 15352.00000
39.18 24.00000 1.27850 1644.00000 15118.00000
39.20 18.00000 1.26900 1600.00000 15132.00000
39.22 18.00000 1.27850 1602.00000 14816.00000
39.24 24.00000 1.27850 1530.00000 15070.00000
39.26 42.00000 1.27850 1434.00000 15054.00000
39.28 44.00000 1.26900 1482.00000 14756.00000
39.30 52.00000 1.26900 1452.00000 14488.00000
39.32 44.00000 1.27850 1532.00000 14508.00000
39.34 36.00000 1.28799 1458.00000 14720.00000
39.36 34.00000 1.27850 1546.00000 14676.00000
39.38 38.00000 1.27850 1612.00000 14736.00000
39.40 26.00000 1.27850 1702.00000 14766.00000
39.42 34.00000 1.27850 1688.00000 14734.00000
39.44 32.00000 1.27850 1650.00000 14952.00000
39.46 42.00000 1.27850 1590.00000 15066.00000
39.48 46.00000 1.27850 1588.00000 14986.00000
39.50 44.00000 1.27850 1550.00000 14982.00000
39.52 44.00000 1.26900 1584.00000 14886.00000
39.54 40.00000 1.26900 1630.00000 14856.00000
39.56 30.00000 1.27850 1636.00000 14882.00000
39.58 28.00000 1.27850 1650.00000 14880.00000
39.60 30.00000 1.28799 1618.00000 14892.00000
39.62 30.00000 1.28799 1626.00000 14828.00000
39.64 36.00000 1.28799 1614.00000 14862.00000
39.66 36.00000 1.28799 1546.00000 14688.00000
39.68 32.00000 1.28799 1508.00000 14596.00000
39.70 24.00000 1.28799 1512.00000 14608.00000
39.72 26.00000 1.28799 1606.00000 14580.00000
39.74 32.00000 1.28799 1584.00000 14610.00000
39.76 30.00000 1.28799 1616.00000 14768.00000
39.78 28.00000 1.28799 1586.00000 14812.00000
39.80 38.00000 1.28799 1584.00000 14666.00000
39.82 30.00000 1.28799 1600.00000 14688.00000
39.84 32.00000 1.28799 1646.00000 14778.00000
39.86 26.00000 1.28799 1654.00000 14970.00000
39.88 36.00000 1.28799 1582.00000 15090.00000
39.90 36.00000 1.28799 1562.00000 14922.00000
39.92 32.00000 1.27850 1564.00000 14766.00000
39.94 28.00000 1.27850 1622.00000 14802.00000
39.96 30.00000 1.27850 1674.00000 14934.00000
39.98 36.00000 1.28799 1684.00000 15174.00000
40.00 42.00000 1.27850 1644.00000 15238.00000
40.02 40.00000 1.27850 1670.00000 15254.00000
40.04 48.00000 1.27850 1648.00000 14986.00000
40.06 56.00000 1.27850 1616.00000 15022.00000
40.08 52.00000 1.27850 1606.00000 15154.00000
40.10 58.00000 1.28799 1562.00000 14986.00000
40.12 46.00000 1.29748 1660.00000 14828.00000
40.14 28.00000 1.29748 1672.00000 14720.00000
40.16 18.00000 1.28799 1742.00000 14572.00000
40.18 16.00000 1.28799 1654.00000 14686.00000
40.20 28.00000 1.27850 1642.00000 14954.00000
40.22 32.00000 1.27850 1698.00000 15310.00000
40.24 30.00000 1.27850 1732.00000 15166.00000
40.26 40.00000 1.28799 1700.00000 15210.00000
40.28 44.00000 1.27850 1674.00000 15182.00000
40.30 38.00000 1.25951 1652.00000 15060.00000
40.32 40.00000 1.25951 1660.00000 15058.00000
40.34 40.00000 1.26900 1698.00000 15342.00000
40.36 48.00000 1.28799 1772.00000 15484.00000
40.38 36.00000 1.27850 1724.00000 15446.00000
40.40 30.00000 1.27850 1770.00000 15244.00000
40.42 32.00000 1.27850 1810.00000 15344.00000
40.44 32.00000 1.28799 1800.00000 15372.00000
40.46 20.00000 1.28799 1786.00000 15270.00000
40.48 20.00000 1.28799 1710.00000 14904.00000
40.50 30.00000 1.28799 1684.00000 14662.00000
40.52 42.00000 1.28799 1584.00000 14608.00000
40.54 34.00000 1.28799 1654.00000 14708.00000
40.56 30.00000 1.28799 1662.00000 14976.00000
40.58 32.00000 1.28799 1668.00000 15292.00000
40.60 50.00000 1.28799 1646.00000 15288.00000
40.62 38.00000 1.28799 1644.00000 15000.00000
40.64 34.00000 1.28799 1606.00000 15130.00000
40.66 28.00000 1.29748 1606.00000 15224.00000
40.68 26.00000 1.29748 1662.00000 15224.00000
40.70 24.00000 1.29748 1724.00000 15110.00000
40.72 32.00000 1.28799 1754.00000 14948.00000
40.74 40.00000 1.28799 1840.00000 15058.00000
40.76 36.00000 1.28799 1818.00000 15012.00000
40.78 30.00000 1.28799 1782.00000 15002.00000
40.80 38.00000 1.28799 1694.00000 15104.00000
40.82 44.00000 1.27850 1706.00000 15300.00000
40.84 34.00000 1.26900 1718.00000 15344.00000
40.86 46.00000 1.27850 1724.00000 15350.00000
40.88 48.00000 1.26900 1738.00000 15356.00000
40.90 42.00000 1.27850 1754.00000 15372.00000
40.92 44.00000 1.27850 1730.00000 15296.00000
40.94 40.00000 1.27850 1780.00000 15066.00000
40.96 30.00000 1.27850 1766.00000 15146.00000
40.98 30.00000 1.27850 1822.00000 15114.00000
41.00 30.00000 1.28799 1862.00000 15220.00000
41.02 42.00000 1.28799 1886.00000 15276.00000
41.04 46.00000 1.28799 1904.00000 15382.00000
41.06 50.00000 1.28799 1846.00000 15192.00000
41.08 42.00000 1.27850 1834.00000 15568.00000
41.10 32.00000 1.27850 1938.00000 15564.00000
41.12 42.00000 1.26900 2014.00000 15870.00000
41.14 40.00000 1.27850 2070.00000 15688.00000
41.16 48.00000 1.26900 2016.00000 15576.00000
41.18 46.00000 1.27850 2002.00000 15838.00000
41.20 40.00000 1.27850 1940.00000 15798.00000
41.22 28.00000 1.26900 2010.00000 15942.00000
41.24 32.00000 1.26900 2016.00000 15930.00000
41.26 44.00000 1.26900 1996.00000 16202.00000
41.28 44.00000 1.26900 1884.00000 16240.00000
41.30 32.00000 1.26900 1860.00000 16308.00000
41.32 30.00000 1.26900 1886.00000 16132.00000
41.34 28.00000 1.26900 1950.00000 15798.00000
41.36 32.00000 1.26900 1922.00000 15528.00000
41.38 42.00000 1.27850 1820.00000 15490.00000
41.40 50.00000 1.27850 1800.00000 15502.00000
41.42 66.00000 1.27850 1860.00000 15390.00000
41.44 60.00000 1.26900 1914.00000 15328.00000
41.46 60.00000 1.26900 1902.00000 15248.00000
41.48 54.00000 1.26900 1782.00000 15284.00000
41.50 60.00000 1.28799 1822.00000 15350.00000
41.52 38.00000 1.27850 1814.00000 15358.00000
41.54 38.00000 1.27850 1872.00000 15184.00000
41.56 38.00000 1.27850 1806.00000 15236.00000
41.58 44.00000 1.28799 1890.00000 15104.00000
41.60 40.00000 1.27850 1864.00000 15174.00000
41.62 48.00000 1.26900 1888.00000 15418.00000
41.64 44.00000 1.26900 1928.00000 15558.00000
41.66 50.00000 1.27850 1902.00000 15562.00000
41.68 50.00000 1.28799 1902.00000 15432.00000
41.70 50.00000 1.26900 1856.00000 15190.00000
41.72 34.00000 1.26900 1954.00000 15308.00000
41.74 44.00000 1.26900 1860.00000 15356.00000
41.76 46.00000 1.27850 1808.00000 15466.00000
41.78 56.00000 1.27850 1786.00000 15362.00000
41.80 46.00000 1.28799 1866.00000 15430.00000
41.82 34.00000 1.28799 1884.00000 15522.00000
41.84 20.00000 1.28799 1864.00000 15318.00000
41.86 32.00000 1.27850 1782.00000 15272.00000
41.88 42.00000 1.26900 1784.00000 15256.00000
41.90 42.00000 1.26900 1750.00000 15290.00000
41.92 46.00000 1.27850 1706.00000 15076.00000
41.94 38.00000 1.28799 1682.00000 14910.00000
41.96 38.00000 1.28799 1668.00000 14908.00000
41.98 38.00000 1.28799 1708.00000 14978.00000
42.00 48.00000 1.28799 1744.00000 14860.00000
42.02 40.00000 1.27850 1680.00000 14912.00000
42.04 32.00000 1.27850 1622.00000 14814.00000
42.06 30.00000 1.28799 1552.00000 14930.00000
42.08 40.00000 1.28799 1566.00000 14824.00000
42.10 40.00000 1.28799 1552.00000 14830.00000
42.12 34.00000 1.28799 1618.00000 14674.00000
42.14 26.00000 1.28799 1580.00000 14766.00000
42.16 28.00000 1.27850 1542.00000 14796.00000
42.18 28.00000 1.27850 1480.00000 14778.00000
