~Version
VERS. 2.0
WRAP. NO
~Well
STRT.M 0.27
STOP.M 59.83
STEP.M 0.02
NULL. -999.0
WELL. SYNTH_B
DATE. 2025-12-31
~Curve
DEPT.M
GR.CPS
CL.IN
LD.CPS
SD.CPS
~A
# ...
31.74 52.00000 1.28799 1420.00000 14252.00000
31.76 62.00000 1.29748 1462.00000 14402.00000
31.78 56.00000 1.29748 1396.00000 14332.00000
31.80 70.00000 1.29748 1424.00000 14252.00000
31.82 66.00000 1.28799 1344.00000 13968.00000
31.84 62.00000 1.28799 1314.00000 13740.00000
31.86 44.00000 1.29748 1178.00000 13380.00000
31.88 36.00000 1.30698 1102.00000 13178.00000
31.90 34.00000 1.29748 1080.00000 13210.00000
31.92 30.00000 1.30698 1096.00000 13184.00000
31.94 38.00000 1.29748 1016.00000 12980.00000
31.96 34.00000 1.30698 936.00000 12704.00000
31.98 26.00000 1.30698 932.00000 12490.00000
32.00 26.00000 1.29748 976.00000 12282.00000
32.02 22.00000 1.29748 1014.00000 12306.00000
32.04 30.00000 1.29748 1020.00000 12004.00000
32.06 26.00000 1.29748 986.00000 11942.00000
32.08 30.00000 1.27850 922.00000 11750.00000
32.10 30.00000 1.29748 948.00000 11994.00000
32.12 26.00000 1.30698 938.00000 12130.00000
32.14 26.00000 1.29748 924.00000 12204.00000
32.16 24.00000 1.27850 898.00000 12564.00000
32.18 34.00000 1.29748 898.00000 12916.00000
32.20 38.00000 1.30698 892.00000 13150.00000
32.22 38.00000 1.29748 942.00000 13156.00000
32.24 40.00000 1.28799 966.00000 13394.00000
32.26 44.00000 1.30698 974.00000 13326.00000
32.28 38.00000 1.30698 978.00000 13142.00000
32.30 30.00000 1.28799 998.00000 12678.00000
32.32 32.00000 1.29748 996.00000 12352.00000
32.34 32.00000 1.30698 1008.00000 12492.00000
32.36 34.00000 1.29748 1012.00000 12606.00000
32.38 28.00000 1.27850 1024.00000 12692.00000
32.40 30.00000 1.29748 966.00000 12716.00000
32.42 30.00000 1.32597 1024.00000 12822.00000
32.44 40.00000 1.31647 1128.00000 13224.00000
32.46 52.00000 1.29748 1144.00000 13330.00000
32.48 58.00000 1.27850 1098.00000 13572.00000
32.50 50.00000 1.29748 1130.00000 13632.00000
32.52 44.00000 1.32597 1146.00000 13922.00000
32.54 40.00000 1.31647 1172.00000 13914.00000
32.56 40.00000 1.30698 1200.00000 13916.00000
32.58 42.00000 1.29748 1256.00000 13604.00000
32.60 40.00000 1.30698 1264.00000 13702.00000
32.62 48.00000 1.30698 1216.00000 13516.00000
32.64 54.00000 1.31647 1218.00000 13698.00000
32.66 64.00000 1.31647 1216.00000 13734.00000
32.68 58.00000 1.30698 1206.00000 14102.00000
32.70 56.00000 1.28799 1180.00000 14260.00000
32.72 50.00000 1.29748 1200.00000 14026.00000
32.74 58.00000 1.30698 1242.00000 13882.00000
32.76 52.00000 1.32597 1252.00000 13798.00000
32.78 50.00000 1.31647 1320.00000 14060.00000
32.80 42.00000 1.29748 1296.00000 14088.00000
32.82 46.00000 1.29748 1294.00000 13940.00000
32.84 48.00000 1.30251 1224.00000 13762.00000
32.86 42.00000 1.29748 1246.00000 13670.00000
32.88 36.00000 1.28799 1270.00000 13884.00000
32.90 22.00000 1.28799 1254.00000 13964.00000
32.92 28.00000 1.29748 1290.00000 14284.00000
32.94 34.00000 1.30698 1254.00000 14376.00000
32.96 48.00000 1.30698 1212.00000 14504.00000
32.98 58.00000 1.28799 1226.00000 14512.00000
33.00 40.00000 1.30698 1254.00000 14578.00000
33.02 38.00000 1.31647 1338.00000 14482.00000
33.04 32.00000 1.30698 1300.00000 14244.00000
33.06 48.00000 1.28799 1316.00000 14194.00000
33.08 50.00000 1.29748 1386.00000 14452.00000
33.10 54.00000 1.30698 1394.00000 14492.00000
33.12 56.00000 1.28799 1440.00000 14464.00000
33.14 52.00000 1.28799 1418.00000 14166.00000
33.16 32.00000 1.29748 1380.00000 14140.00000
33.18 36.00000 1.32597 1416.00000 14414.00000
33.20 36.00000 1.31647 1378.00000 14454.00000
33.22 42.00000 1.29748 1408.00000 14456.00000
33.24 40.00000 1.28799 1364.00000 14388.00000
33.26 30.00000 1.29748 1364.00000 14492.00000
33.28 40.00000 1.31647 1398.00000 14598.00000
33.30 54.00000 1.33546 1488.00000 14486.00000
33.32 58.00000 1.32597 1532.00000 14474.00000
33.34 46.00000 1.31647 1486.00000 14434.00000
33.36 40.00000 1.28799 1408.00000 14686.00000
33.38 34.00000 1.28799 1410.00000 14702.00000
33.40 44.00000 1.31647 1390.00000 14604.00000
33.42 36.00000 1.31647 1472.00000 14396.00000
33.44 48.00000 1.30698 1582.00000 14492.00000
33.46 38.00000 1.29748 1586.00000 14318.00000
33.48 44.00000 1.31647 1582.00000 14320.00000
33.50 50.00000 1.30698 1576.00000 14204.00000
33.52 54.00000 1.29748 1544.00000 14078.00000
33.54 56.00000 1.29748 1496.00000 14064.00000
33.56 46.00000 1.30698 1506.00000 14102.00000
33.58 44.00000 1.29748 1482.00000 14250.00000
33.60 34.00000 1.29748 1486.00000 14168.00000
33.62 34.00000 1.29748 1526.00000 14352.00000
33.64 30.00000 1.29748 1564.00000 14414.00000
33.66 26.00000 1.30698 1422.00000 14260.00000
33.68 22.00000 1.30698 1394.00000 14252.00000
33.70 32.00000 1.29748 1402.00000 14362.00000
33.72 38.00000 1.29748 1440.00000 14390.00000
33.74 36.00000 1.29748 1478.00000 14432.00000
33.76 38.00000 1.29748 1428.00000 14256.00000
33.78 36.00000 1.29748 1458.00000 14342.00000
33.80 34.00000 1.29748 1486.00000 14364.00000
33.82 30.00000 1.29748 1602.00000 14228.00000
33.84 32.00000 1.30698 1554.00000 14130.00000
33.86 46.00000 1.31647 1532.00000 14148.00000
33.88 46.00000 1.29748 1488.00000 14248.00000
33.90 46.00000 1.29748 1526.00000 14280.00000
33.92 38.00000 1.29748 1500.00000 14396.00000
33.94 36.00000 1.29748 1498.00000 14608.00000
33.96 32.00000 1.29748 1474.00000 14684.00000
33.98 26.00000 1.29748 1388.00000 14554.00000
34.00 28.00000 1.29748 1346.00000 14418.00000
34.02 34.00000 1.29748 1358.00000 14534.00000
34.04 42.00000 1.30698 1434.00000 14468.00000
34.06 48.00000 1.29748 1456.00000 14580.00000
34.08 48.00000 1.30698 1504.00000 14422.00000
34.10 48.00000 1.30698 1458.00000 14496.00000
34.12 52.00000 1.30698 1408.00000 14442.00000
34.14 38.00000 1.27850 1462.00000 14620.00000
34.16 40.00000 1.27850 1474.00000 14790.00000
34.18 50.00000 1.29748 1504.00000 14858.00000
34.20 46.00000 1.32597 1480.00000 14590.00000
34.22 44.00000 1.32597 1496.00000 14288.00000
34.24 50.00000 1.30698 1494.00000 14362.00000
34.26 48.00000 1.27850 1552.00000 14322.00000
34.28 46.00000 1.27850 1580.00000 14460.00000
34.30 34.00000 1.29748 1600.00000 14738.00000
34.32 28.00000 1.30698 1510.00000 14748.00000
34.34 30.00000 1.32597 1424.00000 14656.00000
34.36 28.00000 1.31647 1356.00000 14558.00000
34.38 36.00000 1.29748 1320.00000 14576.00000
34.40 38.00000 1.29748 1242.00000 14698.00000
34.42 40.00000 1.30698 1234.00000 14688.00000
34.44 26.00000 1.30698 1246.00000 14266.00000
34.46 28.00000 1.30698 1286.00000 13560.00000
34.48 34.00000 1.28799 1312.00000 13350.00000
34.50 46.00000 1.29748 1290.00000 13070.00000
34.52 60.00000 1.29748 1310.00000 13120.00000
34.54 44.00000 1.29748 1278.00000 12900.00000
34.56 46.00000 1.29748 1322.00000 13222.00000
34.58 38.00000 1.30698 1358.00000 13450.00000
34.60 46.00000 1.32597 1372.00000 13980.00000
34.62 44.00000 1.31647 1362.00000 14540.00000
34.64 46.00000 1.29748 1308.00000 14864.00000
34.66 38.00000 1.26900 1318.00000 14742.00000
34.68 38.00000 1.26900 1328.00000 14744.00000
34.70 34.00000 1.28799 1476.00000 14896.00000
34.72 44.00000 1.29748 1534.00000 15066.00000
34.74 40.00000 1.29748 1524.00000 15032.00000
34.76 44.00000 1.29748 1522.00000 14916.00000
34.78 30.00000 1.30698 1556.00000 14746.00000
34.80 18.00000 1.30698 1692.00000 14772.00000
34.82 38.00000 1.30698 1756.00000 15020.00000
34.84 44.00000 1.30698 1736.00000 15000.00000
34.86 28.00000 1.29748 1768.00000 14898.00000
34.88 30.00000 1.30698 1712.00000 14850.00000
34.90 38.00000 1.29748 1694.00000 14906.00000
34.92 46.00000 1.30698 1664.00000 14910.00000
34.94 44.00000 1.29748 1624.00000 14796.00000
34.96 36.00000 1.30698 1642.00000 14932.00000
34.98 42.00000 1.28799 1600.00000 14936.00000
35.00 40.00000 1.28799 1610.00000 15004.00000
35.02 42.00000 1.30698 1636.00000 14850.00000
35.04 32.00000 1.30698 1672.00000 14728.00000
35.06 40.00000 1.29748 1634.00000 14576.00000
35.08 40.00000 1.28799 1676.00000 14568.00000
35.10 36.00000 1.29748 1654.00000 14730.00000
35.12 28.00000 1.29748 1652.00000 14826.00000
35.14 24.00000 1.29748 1662.00000 14922.00000
35.16 36.00000 1.29748 1680.00000 14870.00000
35.18 44.00000 1.30698 1648.00000 15010.00000
35.20 48.00000 1.30698 1630.00000 15010.00000
35.22 40.00000 1.29748 1588.00000 15274.00000
