~Version
VERS. 2.0
WRAP. NO
~Well
STRT.M 0.82
STOP.M 59.52
STEP.M 0.02
NULL. -999.0
WELL. SYNTH_A
DATE. 2025-12-31
~Curve
DEPT.M
GR.CPS
CL.IN
LD.CPS
SD.CPS
~A
# ...
45.72 34.00000 2.16141 1262.00000 13818.00000
45.74 48.00000 2.15191 1296.00000 13470.00000
45.76 60.00000 2.14242 1278.00000 13548.00000
45.78 58.00000 2.14242 1206.00000 13610.00000
45.80 46.00000 2.14242 1224.00000 13686.00000
45.82 34.00000 2.15191 1226.00000 13794.00000
45.84 48.00000 2.16141 1232.00000 13872.00000
45.86 60.00000 2.16141 1200.00000 13870.00000
45.88 50.00000 2.16141 1226.00000 14124.00000
45.90 44.00000 2.15191 1260.00000 14006.00000
45.92 42.00000 2.16141 1232.00000 13962.00000
45.94 40.00000 2.15191 1212.00000 14002.00000
45.96 46.00000 2.15191 1244.00000 13946.00000
45.98 36.00000 2.15191 1252.00000 13732.00000
46.00 38.00000 2.14242 1244.00000 13574.00000
46.02 48.00000 2.15191 1246.00000 13546.00000
46.04 60.00000 2.13292 1246.00000 13636.00000
46.06 48.00000 2.13292 1250.00000 13770.00000
46.08 40.00000 2.13292 1304.00000 13886.00000
46.10 34.00000 2.13292 1296.00000 13770.00000
46.12 40.00000 2.15191 1240.00000 13768.00000
46.14 48.00000 2.16141 1188.00000 13732.00000
46.16 52.00000 2.15191 1222.00000 13686.00000
46.18 58.00000 2.15191 1250.00000 13672.00000
46.20 44.00000 2.16141 1240.00000 13746.00000
46.22 48.00000 2.14242 1232.00000 13542.00000
46.24 40.00000 2.15191 1208.00000 13506.00000
46.26 32.00000 2.14242 1190.00000 13518.00000
46.28 30.00000 2.16141 1198.00000 13824.00000
46.30 40.00000 2.15191 1270.00000 13940.00000
46.32 34.00000 2.14242 1310.00000 13726.00000
46.34 42.00000 2.15191 1330.00000 13968.00000
46.36 46.00000 2.18039 1322.00000 13862.00000
46.38 34.00000 2.18989 1226.00000 13958.00000
46.40 32.00000 2.18989 1120.00000 13820.00000
46.42 38.00000 2.18039 1204.00000 13822.00000
46.44 42.00000 2.16141 1298.00000 13862.00000
46.46 36.00000 2.14242 1272.00000 14006.00000
46.48 44.00000 2.14242 1216.00000 14026.00000
46.50 44.00000 2.15191 1198.00000 13860.00000
46.52 26.00000 2.16141 1160.00000 13734.00000
46.54 34.00000 2.15191 1186.00000 13814.00000
46.56 50.00000 2.16141 1142.00000 13728.00000
46.58 48.00000 2.17090 1180.00000 13682.00000
46.60 42.00000 2.16141 1192.00000 13824.00000
46.62 48.00000 2.16141 1224.00000 13776.00000
46.64 52.00000 2.18039 1200.00000 13872.00000
46.66 40.00000 2.17090 1104.00000 13870.00000
46.68 40.00000 2.16141 1178.00000 13896.00000
46.70 30.00000 2.16141 1372.00000 13856.00000
46.72 36.00000 2.16141 1372.00000 13942.00000
46.74 32.00000 2.16141 1330.00000 14002.00000
46.76 40.00000 2.17090 1312.00000 14238.00000
46.78 54.00000 2.18039 1274.00000 14600.00000
46.80 46.00000 2.16141 1392.00000 14294.00000
46.82 40.00000 2.16141 1390.00000 14314.00000
46.84 38.00000 2.18039 1306.00000 14460.00000
46.86 46.00000 2.17090 1224.00000 14402.00000
46.88 60.00000 2.16141 1208.00000 14340.00000
46.90 66.00000 2.18039 1218.00000 14324.00000
46.92 52.00000 2.18039 1252.00000 14190.00000
46.94 50.00000 2.18039 1228.00000 14272.00000
46.96 36.00000 2.17090 1354.00000 14146.00000
46.98 52.00000 2.17090 1394.00000 13904.00000
47.00 36.00000 2.17090 1480.00000 13554.00000
47.02 38.00000 2.17090 1592.00000 13370.00000
47.04 34.00000 2.16141 1718.00000 13454.00000
47.06 24.00000 2.13292 1830.00000 13984.00000
47.08 40.00000 2.13292 1902.00000 14348.00000
47.10 42.00000 2.14242 1988.00000 15214.00000
47.12 34.00000 2.17090 2222.00000 15860.00000
47.14 28.00000 2.17090 2524.00000 16774.00000
47.16 22.00000 2.15191 2806.00000 17746.00000
47.18 16.00000 2.15191 2920.00000 18514.00000
47.20 14.00000 2.17090 3300.00000 18734.00000
47.22 12.00000 2.18989 3744.00000 18856.00000
47.24 8.00000 2.18989 4252.00000 18668.00000
47.26 8.00000 2.17090 4474.00000 18492.00000
47.28 8.00000 2.15191 4660.00000 18414.00000
47.30 12.00000 2.14242 4562.00000 18266.00000
47.32 12.00000 2.13292 4518.00000 18336.00000
47.34 12.00000 2.15191 4562.00000 18586.00000
47.36 12.00000 2.17090 4602.00000 18562.00000
47.38 12.00000 2.14242 4496.00000 18452.00000
47.40 6.00000 2.15191 4450.00000 18476.00000
47.42 4.00000 2.15191 4352.00000 18724.00000
47.44 6.00000 2.18039 4214.00000 18770.00000
47.46 6.00000 2.16141 4052.00000 18612.00000
47.48 10.00000 2.15191 3702.00000 18598.00000
47.50 8.00000 2.16141 3542.00000 18420.00000
47.52 12.00000 2.17090 3370.00000 18270.00000
47.54 16.00000 2.16141 3028.00000 17872.00000
47.56 8.00000 2.16141 2800.00000 17294.00000
47.58 4.00000 2.16141 2602.00000 16764.00000
47.60 14.00000 2.15191 2440.00000 16250.00000
47.62 22.00000 2.14242 2286.00000 16094.00000
47.64 20.00000 2.16141 2158.00000 15764.00000
47.66 32.00000 2.18039 2188.00000 15640.00000
47.68 40.00000 2.18989 2116.00000 15340.00000
47.70 42.00000 2.18989 2020.00000 15166.00000
47.72 38.00000 2.18989 1948.00000 15126.00000
47.74 30.00000 2.18039 1940.00000 15216.00000
47.76 32.00000 2.18039 1932.00000 15082.00000
47.78 32.00000 2.17090 1962.00000 15110.00000
47.80 44.00000 2.14242 1976.00000 15002.00000
47.82 34.00000 2.15191 1960.00000 15156.00000
47.84 34.00000 2.17090 1952.00000 15416.00000
47.86 30.00000 2.16141 1964.00000 15702.00000
47.88 20.00000 2.14242 2012.00000 15786.00000
47.90 24.00000 2.15191 2062.00000 15834.00000
47.92 40.00000 2.17090 2080.00000 16030.00000
47.94 44.00000 2.15191 2050.00000 16088.00000
47.96 30.00000 2.13292 2018.00000 16090.00000
47.98 32.00000 2.15191 2032.00000 16332.00000
48.00 28.00000 2.15191 2012.00000 16404.00000
48.02 24.00000 2.15191 1956.00000 16220.00000
48.04 22.00000 2.17090 1852.00000 16078.00000
48.06 26.00000 2.16141 1828.00000 15844.00000
48.08 40.00000 2.13292 1860.00000 15582.00000
48.10 32.00000 2.14242 1854.00000 15352.00000
48.12 34.00000 2.16141 1776.00000 15054.00000
48.14 20.00000 2.14242 1724.00000 15166.00000
48.16 30.00000 2.15191 1634.00000 14948.00000
48.18 38.00000 2.16141 1550.00000 14434.00000
48.20 32.00000 2.15191 1526.00000 14332.00000
48.22 36.00000 2.13292 1514.00000 14248.00000
48.24 30.00000 2.12343 1434.00000 14262.00000
48.26 22.00000 2.13292 1550.00000 14474.00000
48.28 40.00000 2.14242 1502.00000 14604.00000
48.30 44.00000 2.14242 1502.00000 14760.00000
48.32 26.00000 2.14242 1480.00000 14706.00000
48.34 28.00000 2.14242 1468.00000 14482.00000
48.36 40.00000 2.15191 1444.00000 14374.00000
48.38 44.00000 2.15191 1504.00000 14462.00000
48.40 32.00000 2.14242 1512.00000 14568.00000
48.42 32.00000 2.14242 1458.00000 14560.00000
48.44 44.00000 2.14242 1430.00000 14482.00000
48.46 44.00000 2.14242 1518.00000 14320.00000
48.48 36.00000 2.14242 1526.00000 14438.00000
48.50 30.00000 2.15191 1514.00000 14620.00000
48.52 36.00000 2.14242 1492.00000 14396.00000
48.54 36.00000 2.14242 1564.00000 14232.00000
48.56 36.00000 2.14242 1598.00000 14392.00000
48.58 42.00000 2.14242 1496.00000 14414.00000
48.60 38.00000 2.14242 1440.00000 14484.00000
48.62 26.00000 2.14242 1448.00000 14550.00000
48.64 30.00000 2.14242 1522.00000 14544.00000
48.66 36.00000 2.15191 1586.00000 14624.00000
48.68 42.00000 2.14242 1470.00000 14800.00000
48.70 40.00000 2.15191 1436.00000 14846.00000
48.72 30.00000 2.14242 1520.00000 14670.00000
48.74 36.00000 2.14242 1574.00000 14748.00000
48.76 36.00000 2.13292 1612.00000 14600.00000
48.78 38.00000 2.13292 1616.00000 14706.00000
48.80 34.00000 2.13292 1576.00000 14994.00000
48.82 34.00000 2.14242 1608.00000 14852.00000
48.84 40.00000 2.14242 1618.00000 14702.00000
48.86 58.00000 2.14242 1550.00000 14690.00000
48.88 64.00000 2.15191 1494.00000 14720.00000
48.90 34.00000 2.15191 1494.00000 14650.00000
48.92 32.00000 2.15191 1528.00000 14706.00000
48.94 22.00000 2.14242 1538.00000 14828.00000
48.96 28.00000 2.14242 1634.00000 14708.00000
48.98 34.00000 2.14242 1608.00000 14832.00000
49.00 36.00000 2.14242 1602.00000 14826.00000
49.02 36.00000 2.14242 1486.00000 14980.00000
49.04 34.00000 2.14242 1466.00000 15016.00000
49.06 38.00000 2.14242 1528.00000 14910.00000
49.08 34.00000 2.15191 1554.00000 14946.00000
49.10 42.00000 2.14242 1558.00000 14872.00000
49.12 44.00000 2.14242 1628.00000 14852.00000
49.14 40.00000 2.13292 1620.00000 14916.00000
49.16 26.00000 2.14242 1618.00000 15070.00000
49.18 36.00000 2.14242 1604.00000 15130.00000
49.20 48.00000 2.13292 1526.00000 15008.00000
