~Version
VERS. 2.0
WRAP. NO
~Well
STRT.M 0.82
STOP.M 59.52
STEP.M 0.02
NULL. -999.0
WELL. SYNTH_A
DATE. 2025-12-31
~Curve
DEPT.M
GR.CPS
CL.IN
LD.CPS
SD.CPS
~A
# ...
17.82 48.00000 2.22786 1760.00000 15440.00000
17.84 60.00000 2.20887 1830.00000 15338.00000
17.86 54.00000 2.19938 1774.00000 15328.00000
17.88 54.00000 2.21837 1876.00000 15330.00000
17.90 46.00000 2.22786 1830.00000 15276.00000
17.92 46.00000 2.23735 1798.00000 14992.00000
17.94 46.00000 2.23735 1708.00000 14888.00000
17.96 44.00000 2.23735 1762.00000 14968.00000
17.98 48.00000 2.23735 1906.00000 15372.00000
18.00 42.00000 2.23735 1930.00000 15386.00000
18.02 32.00000 2.25634 1920.00000 15502.00000
18.04 32.00000 2.27533 1786.00000 15414.00000
18.06 30.00000 2.28482 1760.00000 15416.00000
18.08 38.00000 2.28482 1796.00000 15352.00000
18.10 58.00000 2.28482 1712.00000 15310.00000
18.12 72.00000 2.28482 1734.00000 15378.00000
18.14 70.00000 2.28482 1628.00000 15496.00000
18.16 48.00000 2.27533 1580.00000 15328.00000
18.18 38.00000 2.25634 1586.00000 14920.00000
18.20 38.00000 2.24685 1530.00000 14418.00000
18.22 32.00000 2.26584 1490.00000 14244.00000
18.24 36.00000 2.26584 1382.00000 13808.00000
18.26 36.00000 2.25634 1500.00000 13316.00000
18.28 46.00000 2.25634 1446.00000 13094.00000
18.30 40.00000 2.25634 1414.00000 13014.00000
18.32 46.00000 2.26584 1370.00000 13252.00000
18.34 48.00000 2.26584 1370.00000 13444.00000
18.36 46.00000 2.26584 1328.00000 13842.00000
18.38 42.00000 2.25634 1372.00000 14166.00000
18.40 46.00000 2.25634 1412.00000 14620.00000
18.42 40.00000 2.25634 1504.00000 14752.00000
18.44 64.00000 2.24685 1522.00000 14834.00000
18.46 68.00000 2.25634 1592.00000 14816.00000
18.48 82.00000 2.26584 1592.00000 15058.00000
18.50 56.00000 2.27533 1660.00000 15436.00000
18.52 52.00000 2.27533 1704.00000 15284.00000
18.54 38.00000 2.26584 1746.00000 15310.00000
18.56 32.00000 2.25634 1750.00000 15194.00000
18.58 32.00000 2.26584 1816.00000 15224.00000
18.60 40.00000 2.25634 1860.00000 15196.00000
18.62 42.00000 2.25634 1886.00000 15360.00000
18.64 48.00000 2.26584 1846.00000 15410.00000
18.66 46.00000 2.26584 1822.00000 15316.00000
18.68 48.00000 2.25634 1792.00000 15304.00000
18.70 38.00000 2.24685 1762.00000 15282.00000
18.72 36.00000 2.24685 1774.00000 15446.00000
18.74 40.00000 2.24685 1768.00000 15482.00000
18.76 40.00000 2.24685 1732.00000 15494.00000
18.78 32.00000 2.25634 1678.00000 15426.00000
18.80 32.00000 2.24685 1668.00000 15258.00000
18.82 32.00000 2.26584 1700.00000 15154.00000
18.84 36.00000 2.25634 1736.00000 15020.00000
18.86 52.00000 2.25634 1796.00000 14772.00000
18.88 68.00000 2.25634 1822.00000 14732.00000
18.90 84.00000 2.25634 1774.00000 14682.00000
18.92 60.00000 2.26584 1724.00000 14790.00000
18.94 42.00000 2.25634 1712.00000 15010.00000
18.96 36.00000 2.26584 1756.00000 14938.00000
18.98 50.00000 2.26584 1736.00000 15054.00000
19.00 66.00000 2.26584 1710.00000 14896.00000
19.02 64.00000 2.23735 1724.00000 14972.00000
19.04 64.00000 2.24685 1722.00000 15038.00000
19.06 68.00000 2.25634 1756.00000 14990.00000
19.08 62.00000 2.28482 1732.00000 14954.00000
19.10 54.00000 2.26584 1670.00000 14840.00000
19.12 48.00000 2.24685 1658.00000 14864.00000
19.14 74.00000 2.23735 1614.00000 14762.00000
19.16 82.00000 2.23735 1634.00000 14722.00000
19.18 82.00000 2.23735 1636.00000 14732.00000
19.20 66.00000 2.23735 1732.00000 14962.00000
19.22 56.00000 2.25634 1698.00000 15022.00000
19.24 56.00000 2.26584 1762.00000 15034.00000
19.26 66.00000 2.26584 1692.00000 14964.00000
19.28 64.00000 2.26584 1680.00000 14882.00000
19.30 70.00000 2.25634 1708.00000 14934.00000
19.32 52.00000 2.26584 1704.00000 14980.00000
19.34 50.00000 2.25634 1728.00000 15104.00000
19.36 62.00000 2.25634 1642.00000 15248.00000
19.38 72.00000 2.24685 1680.00000 15126.00000
19.40 60.00000 2.26584 1662.00000 15222.00000
19.42 38.00000 2.25634 1790.00000 15146.00000
19.44 36.00000 2.26584 1848.00000 15156.00000
19.46 32.00000 2.24685 1836.00000 15150.00000
19.48 36.00000 2.26584 1786.00000 14942.00000
19.50 32.00000 2.25634 1752.00000 15134.00000
19.52 42.00000 2.26584 1812.00000 15040.00000
19.54 46.00000 2.26584 1858.00000 15108.00000
19.56 48.00000 2.26584 1852.00000 14918.00000
19.58 38.00000 2.26584 1802.00000 15052.00000
19.60 52.00000 2.25634 1834.00000 15152.00000
19.62 46.00000 2.25634 1860.00000 15246.00000
19.64 34.00000 2.26584 1872.00000 15312.00000
19.66 32.00000 2.26584 1864.00000 15444.00000
19.68 20.00000 2.26584 1842.00000 15740.00000
19.70 18.00000 2.27533 1766.00000 15782.00000
19.72 26.00000 2.25634 1746.00000 15736.00000
19.74 34.00000 2.25634 1636.00000 15708.00000
19.76 34.00000 2.24685 1622.00000 15628.00000
19.78 38.00000 2.25634 1508.00000 15372.00000
19.80 44.00000 2.27533 1510.00000 15050.00000
19.82 42.00000 2.27533 1536.00000 14390.00000
19.84 38.00000 2.27533 1476.00000 13904.00000
19.86 46.00000 2.25634 1448.00000 13642.00000
19.88 36.00000 2.25634 1424.00000 13146.00000
19.90 34.00000 2.27533 1434.00000 12864.00000
19.92 28.00000 2.27533 1384.00000 12796.00000
19.94 30.00000 2.25634 1386.00000 13280.00000
19.96 22.00000 2.25634 1432.00000 14040.00000
19.98 20.00000 2.24685 1472.00000 14906.00000
20.00 26.00000 2.26584 1486.00000 15388.00000
20.02 36.00000 2.26584 1502.00000 15540.00000
20.04 44.00000 2.26584 1548.00000 15596.00000
20.06 52.00000 2.26584 1714.00000 15596.00000
20.08 48.00000 2.25634 1736.00000 15560.00000
20.10 36.00000 2.23735 1848.00000 15480.00000
20.12 32.00000 2.23735 1914.00000 15492.00000
20.14 38.00000 2.26584 1914.00000 15430.00000
20.16 44.00000 2.27533 2004.00000 15678.00000
20.18 50.00000 2.27533 1936.00000 15816.00000
20.20 46.00000 2.26584 1914.00000 15866.00000
20.22 30.00000 2.26584 1896.00000 15820.00000
20.24 36.00000 2.25634 1960.00000 15694.00000
20.26 44.00000 2.26584 1912.00000 15668.00000
20.28 50.00000 2.26584 1918.00000 15520.00000
20.30 46.00000 2.25634 1840.00000 15544.00000
20.32 42.00000 2.23735 1756.00000 15354.00000
20.34 42.00000 2.23735 1772.00000 15200.00000
20.36 42.00000 2.22786 1768.00000 15334.00000
20.38 40.00000 2.22786 1792.00000 15408.00000
20.40 42.00000 2.22786 1748.00000 15222.00000
20.42 44.00000 2.23735 1724.00000 15056.00000
20.44 38.00000 2.22786 1710.00000 14970.00000
20.46 38.00000 2.21837 1660.00000 14998.00000
20.48 30.00000 2.19938 1628.00000 14964.00000
20.50 20.00000 2.18989 1648.00000 14814.00000
20.52 22.00000 2.18989 1620.00000 14836.00000
20.54 30.00000 2.20887 1624.00000 14812.00000
20.56 36.00000 2.21837 1564.00000 14806.00000
20.58 44.00000 2.23735 1614.00000 14870.00000
20.60 46.00000 2.23735 1614.00000 14934.00000
20.62 44.00000 2.23735 1620.00000 14882.00000
20.64 50.00000 2.23735 1504.00000 14948.00000
20.66 42.00000 2.23735 1486.00000 14826.00000
20.68 46.00000 2.24685 1558.00000 14782.00000
20.70 44.00000 2.26584 1602.00000 14744.00000
20.72 48.00000 2.28482 1646.00000 14792.00000
20.74 34.00000 2.28482 1602.00000 14654.00000
20.76 30.00000 2.27533 1588.00000 14724.00000
20.78 24.00000 2.25634 1608.00000 14648.00000
20.80 46.00000 2.22786 1626.00000 14760.00000
20.82 46.00000 2.22786 1614.00000 14886.00000
20.84 50.00000 2.23735 1650.00000 15166.00000
20.86 28.00000 2.26584 1648.00000 15134.00000
20.88 28.00000 2.26584 1708.00000 15214.00000
20.90 22.00000 2.28482 1682.00000 15042.00000
20.92 18.00000 2.28482 1672.00000 14652.00000
20.94 22.00000 2.28482 1632.00000 14404.00000
20.96 26.00000 2.27533 1600.00000 14402.00000
20.98 44.00000 2.26584 1634.00000 14476.00000
21.00 50.00000 2.25634 1638.00000 14604.00000
21.02 66.00000 2.25634 1632.00000 14630.00000
21.04 64.00000 2.22786 1626.00000 14552.00000
21.06 66.00000 2.23735 1594.00000 14504.00000
21.08 50.00000 2.23735 1580.00000 14452.00000
21.10 50.00000 2.23735 1588.00000 14594.00000
21.12 46.00000 2.22786 1668.00000 14870.00000
21.14 40.00000 2.22786 1712.00000 15224.00000
21.16 40.00000 2.23735 1624.00000 15172.00000
21.18 38.00000 2.23735 1636.00000 15422.00000
21.20 58.00000 2.23735 1676.00000 15406.00000
21.22 52.00000 2.23735 1614.00000 15712.00000
21.24 46.00000 2.23735 1674.00000 15574.00000
21.26 38.00000 2.24685 1678.00000 15374.00000
21.28 36.00000 2.24685 1718.00000 14972.00000
