~Version
VERS. 2.0
WRAP. NO
~Well
STRT.M 0.82
STOP.M 59.52
STEP.M 0.02
NULL. -999.0
WELL. SYNTH_A
DATE. 2025-12-31
~Curve
DEPT.M
GR.CPS
CL.IN
LD.CPS
SD.CPS
~A
# ...
56.26 34.00000 1.74369 1620.00000 15400.00000
56.28 30.00000 1.75318 1638.00000 15392.00000
56.30 26.00000 1.74369 1610.00000 15060.00000
56.32 34.00000 1.73419 1646.00000 14760.00000
56.34 32.00000 1.71520 1590.00000 14512.00000
56.36 32.00000 1.71520 1588.00000 14326.00000
56.38 34.00000 1.71520 1488.00000 14666.00000
56.40 30.00000 1.73419 1592.00000 14738.00000
56.42 26.00000 1.74369 1574.00000 14846.00000
56.44 26.00000 1.74369 1504.00000 14786.00000
56.46 26.00000 1.73419 1484.00000 14844.00000
56.48 32.00000 1.71520 1504.00000 15118.00000
56.50 22.00000 1.71520 1478.00000 15220.00000
56.52 22.00000 1.71520 1542.00000 15584.00000
56.54 24.00000 1.72470 1580.00000 15486.00000
56.56 32.00000 1.73419 1566.00000 15496.00000
56.58 32.00000 1.73419 1614.00000 15176.00000
56.60 40.00000 1.73419 1648.00000 15152.00000
56.62 52.00000 1.73419 1622.00000 15312.00000
56.64 64.00000 1.72470 1646.00000 15406.00000
56.66 62.00000 1.72470 1776.00000 15472.00000
56.68 44.00000 1.73419 1816.00000 15674.00000
56.70 48.00000 1.72470 1840.00000 15786.00000
56.72 68.00000 1.71520 1848.00000 15786.00000
56.74 54.00000 1.71520 1830.00000 15748.00000
56.76 50.00000 1.71520 1782.00000 15672.00000
56.78 62.00000 1.71520 1870.00000 15546.00000
56.80 80.00000 1.71520 1834.00000 15498.00000
56.82 76.00000 1.71520 1832.00000 15678.00000
56.84 62.00000 1.71520 1840.00000 15578.00000
56.86 74.00000 1.71520 1856.00000 15424.00000
56.88 80.00000 1.71520 1716.00000 15552.00000
56.90 76.00000 1.71520 1736.00000 15528.00000
56.92 74.00000 1.71520 1704.00000 15512.00000
56.94 74.00000 1.71520 1662.00000 15622.00000
56.96 66.00000 1.72470 1594.00000 15664.00000
56.98 70.00000 1.72470 1628.00000 15762.00000
57.00 54.00000 1.71520 1702.00000 15494.00000
57.02 52.00000 1.71520 1644.00000 15570.00000
57.04 64.00000 1.71520 1602.00000 15580.00000
57.06 84.00000 1.70571 1612.00000 15628.00000
57.08 104.00000 1.70571 1588.00000 15514.00000
57.10 100.00000 1.70571 1608.00000 15296.00000
57.12 60.00000 1.71520 1652.00000 14922.00000
57.14 52.00000 1.70571 1636.00000 14848.00000
57.16 74.00000 1.70571 1674.00000 14862.00000
57.18 82.00000 1.71520 1570.00000 14912.00000
57.20 78.00000 1.70571 1544.00000 15054.00000
57.22 78.00000 1.70571 1558.00000 15192.00000
57.24 76.00000 1.69622 1582.00000 15274.00000
57.26 52.00000 1.68672 1636.00000 15210.00000
57.28 56.00000 1.69622 1674.00000 15036.00000
57.30 56.00000 1.69622 1638.00000 14872.00000
57.32 52.00000 1.69622 1684.00000 15068.00000
57.34 34.00000 1.69622 1732.00000 15074.00000
57.36 44.00000 1.70571 1652.00000 14994.00000
57.38 48.00000 1.69622 1588.00000 15132.00000
57.40 58.00000 1.69622 1500.00000 14934.00000
57.42 32.00000 1.69622 1528.00000 14962.00000
57.44 50.00000 1.69622 1466.00000 15124.00000
57.46 54.00000 1.69622 1412.00000 14902.00000
57.48 42.00000 1.69622 1344.00000 15094.00000
57.50 42.00000 1.69622 1322.00000 15014.00000
57.52 46.00000 1.69622 1392.00000 14794.00000
57.54 54.00000 1.67723 1468.00000 14678.00000
57.56 58.00000 1.68672 1440.00000 14304.00000
57.58 40.00000 1.68672 1346.00000 14138.00000
57.60 -999.00000 1.69622 1242.00000 14244.00000
57.62 -999.00000 1.69622 1282.00000 14136.00000
57.64 -999.00000 1.69622 1318.00000 13982.00000
57.66 -999.00000 1.68672 1368.00000 13878.00000
57.68 -999.00000 1.70571 1336.00000 14228.00000
57.70 -999.00000 1.70571 1344.00000 14298.00000
57.72 -999.00000 1.67723 1342.00000 14356.00000
57.74 -999.00000 1.66774 1388.00000 14282.00000
57.76 -999.00000 1.68672 1390.00000 14170.00000
57.78 -999.00000 1.69622 1362.00000 14144.00000
57.80 -999.00000 1.69622 1422.00000 14374.00000
57.82 -999.00000 1.69622 1404.00000 14492.00000
57.84 -999.00000 1.66774 1354.00000 14432.00000
57.86 -999.00000 1.65824 1358.00000 14302.00000
57.88 -999.00000 1.67723 1428.00000 14890.00000
57.90 -999.00000 1.67723 1456.00000 15046.00000
57.92 -999.00000 1.66774 1426.00000 14804.00000
57.94 -999.00000 1.67723 1418.00000 15024.00000
57.96 -999.00000 1.67723 1544.00000 15252.00000
57.98 -999.00000 1.68672 1582.00000 15338.00000
58.00 -999.00000 1.68672 1610.00000 15204.00000
58.02 -999.00000 1.67723 1626.00000 15324.00000
58.04 -999.00000 1.68672 1610.00000 15330.00000
58.06 -999.00000 1.68672 1586.00000 15550.00000
58.08 -999.00000 1.67723 1654.00000 15636.00000
58.10 -999.00000 1.68672 1718.00000 15284.00000
58.12 -999.00000 1.67723 1758.00000 15388.00000
58.14 -999.00000 1.67723 1672.00000 15700.00000
58.16 -999.00000 1.66774 1638.00000 15750.00000
58.18 -999.00000 1.66774 1718.00000 15716.00000
58.20 -999.00000 1.65824 1736.00000 15926.00000
58.22 -999.00000 1.65824 1734.00000 15778.00000
58.24 -999.00000 1.65824 1700.00000 15740.00000
58.26 -999.00000 1.64875 1666.00000 15504.00000
58.28 -999.00000 1.63926 1628.00000 15460.00000
58.30 -999.00000 1.64875 1730.00000 15592.00000
58.32 -999.00000 1.64875 1740.00000 15592.00000
58.34 -999.00000 1.65824 1594.00000 15578.00000
58.36 -999.00000 1.66774 1656.00000 15510.00000
58.38 -999.00000 1.66774 1658.00000 15502.00000
58.40 -999.00000 1.65824 1686.00000 15558.00000
58.42 -999.00000 1.65824 1770.00000 15554.00000
58.44 -999.00000 1.64875 1808.00000 15364.00000
58.46 -999.00000 1.63926 1722.00000 15570.00000
58.48 -999.00000 1.65824 1734.00000 15540.00000
58.50 -999.00000 1.66774 1858.00000 15360.00000
58.52 -999.00000 1.64875 1858.00000 15322.00000
58.54 -999.00000 1.62976 1746.00000 15506.00000
58.56 -999.00000 1.60128 1662.00000 15530.00000
58.58 -999.00000 1.58229 1640.00000 15190.00000
58.60 -999.00000 1.56331 1672.00000 15290.00000
58.62 -999.00000 1.56331 1738.00000 15238.00000
58.64 -999.00000 1.54432 1726.00000 15372.00000
58.66 -999.00000 1.54432 1764.00000 15130.00000
58.68 -999.00000 1.53483 1700.00000 15306.00000
58.70 -999.00000 1.53483 1740.00000 15402.00000
58.72 -999.00000 1.50634 1720.00000 15512.00000
58.74 -999.00000 1.49685 1730.00000 15624.00000
58.76 -999.00000 1.50634 1752.00000 15776.00000
58.78 -999.00000 1.51584 1734.00000 15804.00000
58.80 -999.00000 1.50634 1758.00000 16070.00000
58.82 -999.00000 1.48736 1756.00000 15802.00000
58.84 -999.00000 1.47786 1780.00000 15478.00000
58.86 -999.00000 1.47786 1694.00000 15632.00000
58.88 -999.00000 1.47786 1702.00000 15608.00000
58.90 -999.00000 1.44938 1804.00000 15380.00000
58.92 -999.00000 1.25002 1868.00000 15012.00000
58.94 -999.00000 1.26900 1858.00000 15040.00000
58.96 -999.00000 1.25002 1756.00000 15300.00000
58.98 -999.00000 1.24052 1676.00000 15286.00000
59.00 -999.00000 1.24052 1752.00000 15424.00000
59.02 -999.00000 1.24052 1680.00000 15406.00000
59.04 -999.00000 1.24052 1636.00000 15304.00000
59.06 -999.00000 1.24052 1680.00000 15544.00000
59.08 -999.00000 1.24052 1716.00000 15348.00000
59.10 -999.00000 -999.00000 1642.00000 15256.00000
59.12 -999.00000 -999.00000 1672.00000 14956.00000
59.14 -999.00000 -999.00000 1666.00000 14854.00000
59.16 -999.00000 -999.00000 1594.00000 14762.00000
59.18 -999.00000 -999.00000 1590.00000 14816.00000
59.20 -999.00000 -999.00000 1542.00000 14656.00000
59.22 -999.00000 -999.00000 1418.00000 14746.00000
59.24 -999.00000 -999.00000 1378.00000 14824.00000
59.26 -999.00000 -999.00000 1450.00000 14454.00000
59.28 -999.00000 -999.00000 1534.00000 14290.00000
59.30 -999.00000 -999.00000 1482.00000 14292.00000
59.32 -999.00000 -999.00000 1484.00000 14394.00000
59.34 -999.00000 -999.00000 1580.00000 14312.00000
59.36 -999.00000 -999.00000 1584.00000 14054.00000
59.38 -999.00000 -999.00000 1568.00000 14114.00000
59.40 -999.00000 -999.00000 1538.00000 14578.00000
59.42 -999.00000 -999.00000 1594.00000 15012.00000
59.44 -999.00000 -999.00000 1680.00000 15242.00000
59.46 -999.00000 -999.00000 1532.00000 15454.00000
59.48 -999.00000 -999.00000 1620.00000 15296.00000
59.50 -999.00000 -999.00000 1622.00000 15248.00000
59.52 -999.00000 -999.00000 1720.00000 15266.00000
59.54 -999.00000 -999.00000 1718.00000 15166.00000
59.56 -999.00000 -999.00000 1722.00000 15096.00000
59.58 -999.00000 -999.00000 1754.00000 14794.00000
59.60 -999.00000 -999.00000 1690.00000 15116.00000
