~Version
VERS. 2.0
WRAP. NO
~Well
STRT.M 0.82
STOP.M 59.52
STEP.M 0.02
NULL. -999.0
WELL. SYNTH_A
DATE. 2025-12-31
~Curve
DEPT.M
GR.CPS
CL.IN
LD.CPS
SD.CPS
~A
# ...
52.74 24.00000 1.89558 4094.00000 17926.00000
52.76 24.00000 1.89558 4154.00000 17960.00000
52.78 14.00000 1.88609 4286.00000 18522.00000
52.80 10.00000 1.88609 4314.00000 18810.00000
52.82 20.00000 1.88609 4426.00000 18872.00000
52.84 24.00000 1.88609 4420.00000 18856.00000
52.86 24.00000 1.88609 4480.00000 18940.00000
52.88 30.00000 1.88609 4686.00000 18744.00000
52.90 22.00000 1.88609 4790.00000 18464.00000
52.92 16.00000 1.88609 4790.00000 18628.00000
52.94 8.00000 1.86710 4682.00000 18916.00000
52.96 10.00000 1.88609 4684.00000 18870.00000
52.98 10.00000 1.86710 4700.00000 18960.00000
53.00 10.00000 1.86710 4862.00000 19056.00000
53.02 14.00000 1.87660 4858.00000 19314.00000
53.04 10.00000 1.87660 4768.00000 19162.00000
53.06 6.00000 1.87660 4802.00000 18872.00000
53.08 10.00000 1.88609 5010.00000 18908.00000
53.10 6.00000 1.88609 4848.00000 19068.00000
53.12 4.00000 1.89558 4944.00000 18768.00000
53.14 2.00000 1.87660 4978.00000 18596.00000
53.16 6.00000 1.87660 4898.00000 18726.00000
53.18 8.00000 1.88609 4844.00000 18948.00000
53.20 6.00000 1.88609 4982.00000 18954.00000
53.22 4.00000 1.87660 5008.00000 18822.00000
53.24 2.00000 1.88609 5004.00000 18692.00000
53.26 0.00000 1.86710 4910.00000 19024.00000
53.28 0.00000 1.87660 4872.00000 18900.00000
53.30 2.00000 1.87660 4912.00000 18704.00000
53.32 2.00000 1.88609 4928.00000 18968.00000
53.34 0.00000 1.86710 4964.00000 18926.00000
53.36 2.00000 1.88609 4912.00000 19148.00000
53.38 2.00000 1.87660 4990.00000 19204.00000
53.40 4.00000 1.88609 5032.00000 19214.00000
53.42 2.00000 1.88609 4994.00000 19014.00000
53.44 2.00000 1.86710 4914.00000 19022.00000
53.46 2.00000 1.88609 4906.00000 19124.00000
53.48 6.00000 1.87660 4886.00000 18996.00000
53.50 4.00000 1.88609 4908.00000 19296.00000
53.52 6.00000 1.88609 4912.00000 19186.00000
53.54 2.00000 1.87660 4904.00000 18794.00000
53.56 4.00000 1.86710 4996.00000 18874.00000
53.58 4.00000 1.86710 4916.00000 18690.00000
53.60 4.00000 1.88609 4970.00000 18634.00000
53.62 2.00000 1.88609 4928.00000 18896.00000
53.64 4.00000 1.88609 4784.00000 18874.00000
53.66 4.00000 1.87660 4754.00000 19032.00000
53.68 6.00000 1.86710 4922.00000 19088.00000
53.70 4.00000 1.88609 4942.00000 19016.00000
53.72 4.00000 1.88609 4886.00000 18960.00000
53.74 6.00000 1.87660 4880.00000 18890.00000
53.76 8.00000 1.87660 4906.00000 18916.00000
53.78 16.00000 1.87660 4800.00000 18782.00000
53.80 12.00000 1.88609 4798.00000 18978.00000
53.82 4.00000 1.88609 4726.00000 18854.00000
53.84 0.00000 1.88609 4548.00000 18876.00000
53.86 6.00000 1.88609 4406.00000 19120.00000
53.88 12.00000 1.86710 4250.00000 19132.00000
53.90 14.00000 1.86710 3934.00000 18944.00000
53.92 16.00000 1.88609 3740.00000 18716.00000
53.94 20.00000 1.86710 3478.00000 18224.00000
53.96 24.00000 1.87660 3056.00000 17630.00000
53.98 16.00000 1.89558 2742.00000 16996.00000
54.00 20.00000 1.89558 2602.00000 16364.00000
54.02 28.00000 1.85761 2408.00000 15966.00000
54.04 38.00000 1.85761 2346.00000 15552.00000
54.06 26.00000 1.88609 2088.00000 14832.00000
54.08 26.00000 1.90508 1852.00000 14478.00000
54.10 24.00000 1.89558 1830.00000 14654.00000
54.12 38.00000 1.88609 1652.00000 14894.00000
54.14 36.00000 1.87660 1594.00000 14990.00000
54.16 36.00000 1.86710 1440.00000 14948.00000
54.18 30.00000 1.84812 1478.00000 14494.00000
54.20 30.00000 1.84812 1490.00000 14272.00000
54.22 36.00000 1.86710 1398.00000 14234.00000
54.24 50.00000 1.88609 1316.00000 14296.00000
54.26 58.00000 1.90508 1326.00000 14318.00000
54.28 34.00000 1.90508 1364.00000 14590.00000
54.30 40.00000 1.89558 1388.00000 14714.00000
54.32 32.00000 1.87660 1336.00000 14782.00000
54.34 40.00000 1.86710 1432.00000 14668.00000
54.36 32.00000 1.87660 1478.00000 14436.00000
54.38 38.00000 1.86710 1370.00000 14572.00000
54.40 30.00000 1.86710 1332.00000 14854.00000
54.42 30.00000 1.87660 1350.00000 14928.00000
54.44 36.00000 1.86710 1404.00000 14784.00000
54.46 56.00000 1.86710 1368.00000 14730.00000
54.48 52.00000 1.86710 1334.00000 14482.00000
54.50 38.00000 1.87660 1338.00000 14262.00000
54.52 38.00000 1.89558 1404.00000 14250.00000
54.54 54.00000 1.89558 1442.00000 14320.00000
54.56 44.00000 1.86710 1392.00000 14306.00000
54.58 50.00000 1.85761 1358.00000 14208.00000
54.60 64.00000 1.86710 1428.00000 14084.00000
54.62 70.00000 1.87660 1344.00000 14184.00000
54.64 52.00000 1.88609 1352.00000 14052.00000
54.66 58.00000 1.87660 1338.00000 14034.00000
54.68 62.00000 1.85761 1400.00000 14062.00000
54.70 62.00000 1.84812 1424.00000 14088.00000
54.72 54.00000 1.84812 1376.00000 14194.00000
54.74 70.00000 1.83862 1408.00000 14450.00000
54.76 62.00000 1.81963 1506.00000 14444.00000
54.78 46.00000 1.81014 1434.00000 14570.00000
54.80 62.00000 1.81014 1474.00000 14790.00000
54.82 56.00000 1.81014 1462.00000 14876.00000
54.84 48.00000 1.81014 1414.00000 14834.00000
54.86 52.00000 1.81014 1498.00000 14932.00000
54.88 46.00000 1.81014 1562.00000 15006.00000
54.90 48.00000 1.79115 1622.00000 15010.00000
54.92 56.00000 1.77217 1644.00000 14908.00000
54.94 80.00000 1.77217 1628.00000 15176.00000
54.96 88.00000 1.77217 1614.00000 15466.00000
54.98 84.00000 1.77217 1694.00000 15860.00000
55.00 84.00000 1.75318 1804.00000 16062.00000
55.02 80.00000 1.77217 1924.00000 15908.00000
55.04 76.00000 1.76267 2034.00000 16100.00000
55.06 68.00000 1.79115 2158.00000 16308.00000
55.08 74.00000 1.78166 2398.00000 16654.00000
55.10 56.00000 1.78166 2832.00000 16938.00000
55.12 56.00000 1.78166 2986.00000 17518.00000
55.14 60.00000 1.77217 3092.00000 18024.00000
55.16 44.00000 1.77217 3224.00000 18468.00000
55.18 28.00000 1.76267 3466.00000 18818.00000
55.20 30.00000 1.76267 3736.00000 19060.00000
55.22 40.00000 1.77217 4138.00000 19332.00000
55.24 40.00000 1.76267 4450.00000 19562.00000
55.26 38.00000 1.75318 4726.00000 19438.00000
55.28 36.00000 1.75318 5024.00000 19398.00000
55.30 24.00000 1.76267 4966.00000 19324.00000
55.32 14.00000 1.76267 4960.00000 19242.00000
55.34 22.00000 1.76267 5020.00000 19286.00000
55.36 18.00000 1.75318 5036.00000 19208.00000
55.38 14.00000 1.75318 4994.00000 19062.00000
55.40 16.00000 1.75318 5000.00000 19178.00000
55.42 12.00000 1.76267 5044.00000 19050.00000
55.44 8.00000 1.76267 5118.00000 19054.00000
55.46 6.00000 1.75318 5104.00000 19274.00000
55.48 6.00000 1.74369 5134.00000 19246.00000
55.50 4.00000 1.74369 4984.00000 19018.00000
55.52 2.00000 1.75318 4970.00000 19002.00000
55.54 2.00000 1.75318 4958.00000 19222.00000
55.56 4.00000 1.76267 4934.00000 19262.00000
55.58 4.00000 1.76267 4936.00000 18906.00000
55.60 6.00000 1.75318 4912.00000 18760.00000
55.62 2.00000 1.75318 4990.00000 19060.00000
55.64 2.00000 1.75318 5130.00000 19134.00000
55.66 2.00000 1.75318 5122.00000 19068.00000
55.68 2.00000 1.76267 5158.00000 19178.00000
55.70 2.00000 1.76267 4976.00000 19156.00000
55.72 2.00000 1.75318 4926.00000 19060.00000
55.74 0.00000 1.75318 4988.00000 18922.00000
55.76 4.00000 1.75318 4836.00000 19062.00000
55.78 6.00000 1.74369 4704.00000 19226.00000
55.80 4.00000 1.74369 4540.00000 19152.00000
55.82 8.00000 1.74369 4376.00000 19242.00000
55.84 12.00000 1.75318 4152.00000 19156.00000
55.86 26.00000 1.74369 3794.00000 18966.00000
55.88 26.00000 1.74369 3502.00000 18676.00000
55.90 22.00000 1.75318 3324.00000 17998.00000
55.92 12.00000 1.75318 3054.00000 17606.00000
55.94 26.00000 1.74369 2920.00000 16944.00000
55.96 36.00000 1.73419 2696.00000 16454.00000
55.98 30.00000 1.75318 2596.00000 15904.00000
56.00 32.00000 1.75318 2368.00000 15738.00000
56.02 40.00000 1.75318 2210.00000 15602.00000
56.04 44.00000 1.74369 2066.00000 15376.00000
56.06 46.00000 1.74369 1960.00000 15524.00000
56.08 40.00000 1.72470 1824.00000 15902.00000
56.10 56.00000 1.73419 1778.00000 15930.00000
56.12 54.00000 1.74369 1746.00000 15936.00000
56.14 52.00000 1.72470 1794.00000 15910.00000
56.16 64.00000 1.71520 1734.00000 15826.00000
56.18 54.00000 1.71520 1598.00000 15550.00000
56.20 26.00000 1.71520 1584.00000 15424.00000
56.22 40.00000 1.71520 1586.00000 15322.00000
56.24 38.00000 1.72470 1602.00000 15192.00000
