~Version
VERS. 2.0
WRAP. NO
~Well
STRT.M 0.82
STOP.M 59.52
STEP.M 0.02
NULL. -999.0
WELL. SYNTH_A
DATE. 2025-12-31
~Curve
DEPT.M
GR.CPS
CL.IN
LD.CPS
SD.CPS
~A
# ...
31.78 38.00000 2.22786 1598.00000 14736.00000
31.80 42.00000 2.21837 1570.00000 14600.00000
31.82 42.00000 2.21837 1584.00000 14344.00000
31.84 40.00000 2.22786 1602.00000 14340.00000
31.86 32.00000 2.22786 1586.00000 14314.00000
31.88 30.00000 2.22786 1562.00000 14332.00000
31.90 32.00000 2.22786 1480.00000 14256.00000
31.92 42.00000 2.22786 1470.00000 14306.00000
31.94 44.00000 2.20887 1470.00000 14460.00000
31.96 50.00000 2.19938 1514.00000 14618.00000
31.98 46.00000 2.20887 1516.00000 14762.00000
32.00 32.00000 2.22786 1544.00000 14852.00000
32.02 24.00000 2.22786 1602.00000 14834.00000
32.04 32.00000 2.21837 1602.00000 14848.00000
32.06 36.00000 2.21837 1590.00000 14912.00000
32.08 34.00000 2.21837 1602.00000 14894.00000
32.10 34.00000 2.20887 1634.00000 14908.00000
32.12 26.00000 2.20887 1662.00000 15204.00000
32.14 26.00000 2.20887 1720.00000 15136.00000
32.16 24.00000 2.19938 1772.00000 15288.00000
32.18 30.00000 2.19938 1704.00000 15134.00000
32.20 28.00000 2.19938 1680.00000 15072.00000
32.22 22.00000 2.19938 1600.00000 14982.00000
32.24 16.00000 2.19938 1636.00000 14898.00000
32.26 30.00000 2.21837 1646.00000 14798.00000
32.28 36.00000 2.23735 1678.00000 14714.00000
32.30 22.00000 2.23735 1596.00000 14696.00000
32.32 28.00000 2.23735 1662.00000 14768.00000
32.34 28.00000 2.21837 1750.00000 14824.00000
32.36 36.00000 2.19938 1772.00000 14986.00000
32.38 28.00000 2.19938 1786.00000 14748.00000
32.40 26.00000 2.20887 1736.00000 14670.00000
32.42 16.00000 2.20887 1748.00000 14822.00000
32.44 32.00000 2.19938 1728.00000 14890.00000
32.46 36.00000 2.20887 1694.00000 14992.00000
32.48 34.00000 2.20887 1670.00000 15000.00000
32.50 26.00000 2.20887 1664.00000 15058.00000
32.52 24.00000 2.19938 1688.00000 14770.00000
32.54 26.00000 2.20887 1802.00000 15060.00000
32.56 32.00000 2.20887 1826.00000 15188.00000
32.58 46.00000 2.19938 1732.00000 15004.00000
32.60 48.00000 2.20887 1676.00000 14844.00000
32.62 42.00000 2.21837 1682.00000 14848.00000
32.64 48.00000 2.21837 1662.00000 15074.00000
32.66 48.00000 2.19938 1734.00000 15154.00000
32.68 46.00000 2.20887 1706.00000 15128.00000
32.70 24.00000 2.20887 1702.00000 14992.00000
32.72 18.00000 2.20887 1606.00000 14854.00000
32.74 22.00000 2.19938 1624.00000 14658.00000
32.76 28.00000 2.19938 1690.00000 14668.00000
32.78 28.00000 2.18989 1636.00000 14770.00000
32.80 46.00000 2.20887 1600.00000 14820.00000
32.82 56.00000 2.20887 1656.00000 14696.00000
32.84 58.00000 2.19938 1666.00000 14482.00000
32.86 52.00000 2.20887 1696.00000 14472.00000
32.88 36.00000 2.20887 1594.00000 14594.00000
32.90 30.00000 2.20887 1576.00000 14638.00000
32.92 34.00000 2.20887 1582.00000 14552.00000
32.94 38.00000 2.20887 1624.00000 14472.00000
32.96 30.00000 2.20887 1660.00000 14668.00000
32.98 34.00000 2.20887 1640.00000 14448.00000
33.00 28.00000 2.20887 1626.00000 14506.00000
33.02 32.00000 2.19938 1622.00000 14456.00000
33.04 20.00000 2.19938 1604.00000 14574.00000
33.06 30.00000 2.20887 1698.00000 14580.00000
33.08 30.00000 2.19938 1634.00000 14620.00000
33.10 20.00000 2.19938 1586.00000 14480.00000
33.12 22.00000 2.18989 1562.00000 14580.00000
33.14 18.00000 2.20887 1528.00000 14530.00000
33.16 18.00000 2.20887 1552.00000 14602.00000
33.18 22.00000 2.19938 1518.00000 14630.00000
33.20 32.00000 2.20887 1558.00000 14602.00000
33.22 32.00000 2.21837 1548.00000 14430.00000
33.24 20.00000 2.21837 1592.00000 14532.00000
33.26 22.00000 2.19938 1608.00000 14390.00000
33.28 24.00000 2.18989 1686.00000 14594.00000
33.30 28.00000 2.18989 1752.00000 14752.00000
33.32 32.00000 2.19938 1762.00000 14786.00000
33.34 30.00000 2.19938 1726.00000 14714.00000
33.36 36.00000 2.20887 1626.00000 14752.00000
33.38 32.00000 2.19938 1574.00000 14798.00000
33.40 32.00000 2.19938 1588.00000 14854.00000
33.42 24.00000 2.18989 1618.00000 14870.00000
33.44 24.00000 2.19938 1650.00000 15022.00000
33.46 26.00000 2.19938 1648.00000 15150.00000
33.48 20.00000 2.20887 1674.00000 15076.00000
33.50 24.00000 2.19938 1676.00000 15138.00000
33.52 22.00000 2.18989 1676.00000 15290.00000
33.54 20.00000 2.19938 1640.00000 15320.00000
33.56 24.00000 2.20887 1578.00000 15112.00000
33.58 32.00000 2.20887 1538.00000 15010.00000
33.60 38.00000 2.20887 1578.00000 14766.00000
33.62 38.00000 2.19938 1668.00000 14548.00000
33.64 44.00000 2.19938 1620.00000 14434.00000
33.66 32.00000 2.19938 1606.00000 14534.00000
33.68 36.00000 2.18989 1510.00000 14640.00000
33.70 40.00000 2.19938 1600.00000 14790.00000
33.72 36.00000 2.19938 1648.00000 14732.00000
33.74 24.00000 2.19938 1644.00000 14668.00000
33.76 20.00000 2.19938 1594.00000 14726.00000
33.78 22.00000 2.19938 1624.00000 14712.00000
33.80 38.00000 2.19938 1600.00000 14644.00000
33.82 48.00000 2.19938 1602.00000 14634.00000
33.84 48.00000 2.19938 1538.00000 14672.00000
33.86 30.00000 2.19938 1580.00000 14706.00000
33.88 34.00000 2.19938 1688.00000 14750.00000
33.90 40.00000 2.19938 1674.00000 14700.00000
33.92 34.00000 2.19938 1658.00000 14580.00000
33.94 30.00000 2.19938 1608.00000 14590.00000
33.96 32.00000 2.19938 1528.00000 14590.00000
33.98 22.00000 2.18989 1502.00000 14496.00000
34.00 20.00000 2.19938 1540.00000 14590.00000
34.02 22.00000 2.19938 1582.00000 14544.00000
34.04 22.00000 2.19938 1488.00000 14660.00000
34.06 22.00000 2.18989 1468.00000 14546.00000
34.08 16.00000 2.18989 1512.00000 14602.00000
34.10 18.00000 2.18989 1582.00000 14622.00000
34.12 18.00000 2.18989 1626.00000 14464.00000
34.14 18.00000 2.18989 1660.00000 14382.00000
34.16 24.00000 2.18989 1648.00000 14134.00000
34.18 24.00000 2.18989 1600.00000 14488.00000
34.20 26.00000 2.18989 1532.00000 14696.00000
34.22 38.00000 2.18989 1554.00000 14842.00000
34.24 42.00000 2.18989 1596.00000 14834.00000
34.26 34.00000 2.18989 1656.00000 14540.00000
34.28 26.00000 2.18989 1736.00000 14624.00000
34.30 24.00000 2.18989 1722.00000 14508.00000
34.32 34.00000 2.18039 1658.00000 14784.00000
34.34 44.00000 2.18039 1658.00000 14708.00000
34.36 36.00000 2.18039 1734.00000 14674.00000
34.38 26.00000 2.18989 1704.00000 14596.00000
34.40 24.00000 2.18989 1656.00000 14708.00000
34.42 28.00000 2.18989 1624.00000 14844.00000
34.44 40.00000 2.18989 1686.00000 14874.00000
34.46 30.00000 2.18989 1658.00000 14756.00000
34.48 30.00000 2.18989 1718.00000 14858.00000
34.50 16.00000 2.18989 1760.00000 14744.00000
34.52 20.00000 2.18989 1614.00000 14784.00000
34.54 20.00000 2.18989 1586.00000 14722.00000
34.56 22.00000 2.18989 1560.00000 14806.00000
34.58 24.00000 2.18989 1636.00000 14930.00000
34.60 24.00000 2.18039 1664.00000 15086.00000
34.62 28.00000 2.18039 1634.00000 15032.00000
34.64 26.00000 2.18039 1662.00000 14892.00000
34.66 20.00000 2.18989 1688.00000 14594.00000
34.68 26.00000 2.18989 1648.00000 14362.00000
34.70 24.00000 2.18039 1572.00000 14530.00000
34.72 26.00000 2.15191 1570.00000 14508.00000
34.74 26.00000 2.13292 1584.00000 14880.00000
34.76 28.00000 2.16141 1618.00000 14886.00000
34.78 24.00000 2.18989 1638.00000 14972.00000
34.80 16.00000 2.18989 1626.00000 14818.00000
34.82 20.00000 2.18039 1654.00000 14784.00000
34.84 20.00000 2.18039 1686.00000 14620.00000
34.86 36.00000 2.18039 1688.00000 14764.00000
34.88 30.00000 2.18039 1688.00000 14886.00000
34.90 34.00000 2.17090 1662.00000 14862.00000
34.92 30.00000 2.18039 1616.00000 14578.00000
34.94 24.00000 2.18039 1674.00000 14550.00000
34.96 20.00000 2.18039 1702.00000 14712.00000
34.98 22.00000 2.17090 1662.00000 14660.00000
35.00 26.00000 2.16141 1652.00000 14646.00000
35.02 32.00000 2.16141 1616.00000 14716.00000
35.04 42.00000 2.17090 1656.00000 14732.00000
35.06 44.00000 2.17090 1528.00000 14920.00000
35.08 32.00000 2.16141 1508.00000 15076.00000
35.10 30.00000 2.15191 1484.00000 14902.00000
35.12 32.00000 2.16141 1554.00000 14668.00000
35.14 48.00000 2.17090 1564.00000 14492.00000
35.16 50.00000 2.17090 1522.00000 14610.00000
35.18 42.00000 2.17090 1512.00000 14634.00000
35.20 28.00000 2.17090 1494.00000 14438.00000
35.22 18.00000 2.17090 1516.00000 14220.00000
35.24 22.00000 2.17090 1544.00000 14090.00000
