~Version
VERS. 2.0
WRAP. NO
~Well
STRT.M 0.27
STOP.M 59.83
STEP.M 0.02
NULL. -999.0
WELL. SYNTH_B
DATE. 2025-12-31
~Curve
DEPT.M
GR.CPS
CL.IN
LD.CPS
SD.CPS
~A
# ...
52.64 32.00000 1.15508 1278.00000 14156.00000
52.66 24.00000 1.15508 1224.00000 14594.00000
52.68 18.00000 1.14559 1300.00000 14872.00000
52.70 18.00000 1.14559 1368.00000 14634.00000
52.72 20.00000 1.13609 1450.00000 14530.00000
52.74 22.00000 1.12660 1426.00000 14378.00000
52.76 26.00000 1.12660 1482.00000 14306.00000
52.78 20.00000 1.13609 1452.00000 14838.00000
52.80 40.00000 1.13609 1438.00000 14990.00000
52.82 36.00000 1.11711 1482.00000 14882.00000
52.84 24.00000 1.11711 1422.00000 14868.00000
52.86 24.00000 1.12660 1412.00000 14862.00000
52.88 28.00000 1.10761 1464.00000 14836.00000
52.90 28.00000 1.08862 1458.00000 15012.00000
52.92 22.00000 1.11711 1512.00000 15014.00000
52.94 22.00000 1.11711 1414.00000 15188.00000
52.96 22.00000 1.11711 1376.00000 15276.00000
52.98 22.00000 1.10761 1428.00000 15334.00000
53.00 22.00000 1.09812 1442.00000 15136.00000
53.02 28.00000 1.09812 1414.00000 15100.00000
53.04 26.00000 1.09812 1358.00000 15016.00000
53.06 26.00000 1.09812 1356.00000 15044.00000
53.08 18.00000 1.09812 1352.00000 14974.00000
53.10 26.00000 1.09812 1442.00000 14724.00000
53.12 34.00000 1.08862 1434.00000 14442.00000
53.14 32.00000 1.09812 1474.00000 14172.00000
53.16 42.00000 1.10761 1500.00000 13978.00000
53.18 34.00000 1.09812 1460.00000 14080.00000
53.20 16.00000 1.10761 1412.00000 14486.00000
53.22 12.00000 1.09812 1348.00000 14694.00000
53.24 32.00000 1.09812 1370.00000 14838.00000
53.26 36.00000 1.09812 1318.00000 14540.00000
53.28 30.00000 1.09812 1394.00000 14282.00000
53.30 32.00000 1.09812 1448.00000 14236.00000
53.32 28.00000 1.10761 1464.00000 14366.00000
53.34 24.00000 1.10761 1364.00000 14362.00000
53.36 26.00000 1.09812 1354.00000 14348.00000
53.38 26.00000 1.09812 1394.00000 14406.00000
53.40 20.00000 1.09812 1408.00000 14594.00000
53.42 12.00000 1.10761 1334.00000 14642.00000
53.44 18.00000 1.10761 1346.00000 14422.00000
53.46 18.00000 1.08862 1344.00000 14236.00000
53.48 14.00000 1.07913 1384.00000 13822.00000
53.50 12.00000 1.08862 1346.00000 13636.00000
53.52 20.00000 1.07913 1366.00000 13316.00000
53.54 28.00000 1.07913 1332.00000 13056.00000
53.56 32.00000 1.08862 1352.00000 12932.00000
53.58 28.00000 1.08862 1348.00000 13366.00000
53.60 24.00000 1.08862 1282.00000 13844.00000
53.62 24.00000 1.09812 1230.00000 14266.00000
53.64 18.00000 1.08862 1278.00000 14414.00000
53.66 20.00000 1.07913 1274.00000 14290.00000
53.68 22.00000 1.07913 1302.00000 14320.00000
53.70 14.00000 1.08862 1374.00000 14298.00000
53.72 14.00000 1.08862 1402.00000 14330.00000
53.74 14.00000 1.07913 1364.00000 14310.00000
53.76 28.00000 1.08862 1340.00000 14294.00000
53.78 24.00000 1.09812 1358.00000 14536.00000
53.80 20.00000 1.09812 1422.00000 14832.00000
53.82 32.00000 1.08862 1414.00000 15008.00000
53.84 42.00000 1.07913 1320.00000 14982.00000
53.86 32.00000 1.07913 1314.00000 14762.00000
53.88 24.00000 1.07913 1324.00000 14540.00000
53.90 32.00000 1.07913 1350.00000 14556.00000
53.92 42.00000 1.07913 1388.00000 14310.00000
53.94 36.00000 1.07913 1352.00000 14082.00000
53.96 26.00000 1.07913 1318.00000 13948.00000
53.98 30.00000 1.06964 1290.00000 13812.00000
54.00 28.00000 1.06964 1272.00000 13522.00000
54.02 26.00000 1.06964 1304.00000 13876.00000
54.04 32.00000 1.08862 1362.00000 13784.00000
54.06 28.00000 1.08862 1368.00000 13552.00000
54.08 20.00000 1.08862 1368.00000 13840.00000
54.10 30.00000 1.09812 1406.00000 14236.00000
54.12 38.00000 1.08862 1416.00000 14530.00000
54.14 42.00000 1.07913 1390.00000 14364.00000
54.16 32.00000 1.06964 1396.00000 14258.00000
54.18 36.00000 1.06964 1400.00000 14802.00000
54.20 36.00000 1.07913 1414.00000 14952.00000
54.22 22.00000 1.07913 1498.00000 15096.00000
54.24 18.00000 1.06964 1528.00000 14928.00000
54.26 34.00000 1.07913 1534.00000 14644.00000
54.28 32.00000 1.07913 1530.00000 14552.00000
54.30 26.00000 1.06964 1568.00000 14498.00000
54.32 32.00000 1.06964 1604.00000 14330.00000
54.34 26.00000 1.05065 1582.00000 14446.00000
54.36 28.00000 1.05065 1526.00000 14634.00000
54.38 18.00000 1.06964 1522.00000 14884.00000
54.40 16.00000 1.06964 1472.00000 15056.00000
54.42 26.00000 1.05065 1476.00000 15148.00000
54.44 36.00000 1.06964 1610.00000 15316.00000
54.46 26.00000 1.06964 1610.00000 15162.00000
54.48 20.00000 1.05065 1564.00000 15110.00000
54.50 12.00000 1.06014 1550.00000 15240.00000
54.52 28.00000 1.06014 1480.00000 15088.00000
54.54 44.00000 1.06964 1484.00000 14862.00000
54.56 50.00000 1.06964 1604.00000 14726.00000
54.58 34.00000 1.06964 1682.00000 14572.00000
54.60 24.00000 1.06014 1678.00000 14710.00000
54.62 28.00000 1.05065 1638.00000 14932.00000
54.64 28.00000 1.05065 1476.00000 14924.00000
54.66 24.00000 1.05065 1492.00000 14824.00000
54.68 26.00000 1.05065 1584.00000 14960.00000
54.70 38.00000 1.05065 1532.00000 15140.00000
54.72 32.00000 1.05065 1522.00000 15376.00000
54.74 32.00000 1.06014 1652.00000 15322.00000
54.76 36.00000 1.06964 1638.00000 15466.00000
54.78 36.00000 1.06014 1590.00000 15688.00000
54.80 26.00000 1.05065 1590.00000 15516.00000
54.82 30.00000 1.05065 1718.00000 15152.00000
54.84 32.00000 1.05065 1784.00000 15218.00000
54.86 28.00000 1.05065 1840.00000 15352.00000
54.88 40.00000 1.05065 1898.00000 15408.00000
54.90 28.00000 1.05065 1870.00000 14986.00000
54.92 54.00000 1.05065 1710.00000 14782.00000
54.94 52.00000 1.05065 1620.00000 15066.00000
54.96 56.00000 1.05065 1652.00000 15072.00000
54.98 38.00000 1.06014 1600.00000 14916.00000
55.00 38.00000 1.06014 1576.00000 14656.00000
55.02 48.00000 1.05065 1576.00000 14826.00000
55.04 32.00000 1.06964 1588.00000 14822.00000
55.06 14.00000 1.06964 1628.00000 14600.00000
55.08 34.00000 1.05065 1664.00000 14694.00000
55.10 30.00000 1.05065 1748.00000 14412.00000
55.12 42.00000 1.04116 1714.00000 14190.00000
55.14 38.00000 1.03166 1768.00000 14448.00000
55.16 28.00000 1.01268 1894.00000 14472.00000
55.18 38.00000 1.02217 1972.00000 14616.00000
55.20 30.00000 1.03166 2152.00000 14844.00000
55.22 30.00000 1.05065 2226.00000 15184.00000
55.24 32.00000 1.05065 2330.00000 15908.00000
55.26 30.00000 1.05065 2510.00000 16524.00000
55.28 24.00000 1.05065 2774.00000 16988.00000
55.30 20.00000 1.05065 2962.00000 17470.00000
55.32 6.00000 1.04116 3218.00000 17968.00000
55.34 6.00000 1.03166 3422.00000 18212.00000
55.36 10.00000 1.00318 3582.00000 18296.00000
55.38 12.00000 0.97470 3832.00000 17976.00000
55.40 22.00000 0.96521 4012.00000 18106.00000
55.42 16.00000 0.98419 4112.00000 18446.00000
55.44 6.00000 0.98419 4122.00000 18538.00000
55.46 8.00000 0.98419 4314.00000 18478.00000
55.48 10.00000 0.97470 4536.00000 18332.00000
55.50 12.00000 0.98419 4626.00000 18324.00000
55.52 6.00000 0.99369 4638.00000 18600.00000
55.54 14.00000 0.97470 4728.00000 18930.00000
55.56 18.00000 0.97470 4650.00000 18920.00000
55.58 10.00000 0.98419 4568.00000 19076.00000
55.60 6.00000 0.99369 4662.00000 19082.00000
55.62 6.00000 0.97470 4912.00000 18842.00000
55.64 8.00000 0.96521 4768.00000 18828.00000
55.66 4.00000 0.97470 4750.00000 18834.00000
55.68 0.00000 0.98419 4776.00000 18966.00000
55.70 4.00000 0.98419 5064.00000 18752.00000
55.72 6.00000 0.98419 5118.00000 19090.00000
55.74 6.00000 0.98419 4830.00000 19110.00000
55.76 2.00000 0.97470 4774.00000 19078.00000
55.78 4.00000 0.98419 4882.00000 19294.00000
55.80 2.00000 0.98419 4944.00000 18962.00000
55.82 2.00000 0.95571 4894.00000 18708.00000
55.84 2.00000 0.95571 4864.00000 18674.00000
55.86 0.00000 0.96521 4844.00000 18764.00000
55.88 0.00000 0.96521 4794.00000 18778.00000
55.90 2.00000 0.95571 4872.00000 18910.00000
55.92 6.00000 0.95571 4926.00000 19146.00000
55.94 4.00000 0.95571 4906.00000 19182.00000
55.96 0.00000 0.95571 4998.00000 18904.00000
55.98 2.00000 0.95571 5042.00000 18840.00000
56.00 2.00000 0.95571 5050.00000 18754.00000
56.02 2.00000 0.95571 5044.00000 18710.00000
56.04 4.00000 0.96521 5022.00000 18746.00000
56.06 6.00000 0.96521 4946.00000 18400.00000
56.08 4.00000 0.96521 4870.00000 18524.00000
56.10 4.00000 0.96521 4950.00000 18952.00000
56.12 6.00000 0.95571 4988.00000 19124.00000
