~Version
VERS. 2.0
WRAP. NO
~Well
STRT.M 0.27
STOP.M 59.83
STEP.M 0.02
NULL. -999.0
WELL. SYNTH_B
DATE. 2025-12-31
~Curve
DEPT.M
GR.CPS
CL.IN
LD.CPS
SD.CPS
~A
# ...
21.30 30.00000 1.49685 1724.00000 14844.00000
21.32 28.00000 1.49685 1810.00000 14952.00000
21.34 28.00000 1.48736 1860.00000 15042.00000
21.36 40.00000 1.48736 1810.00000 15080.00000
21.38 56.00000 1.50634 1772.00000 15034.00000
21.40 56.00000 1.48736 1752.00000 14960.00000
21.42 50.00000 1.48736 1764.00000 15128.00000
21.44 38.00000 1.49685 1798.00000 15424.00000
21.46 42.00000 1.49685 1796.00000 15428.00000
21.48 44.00000 1.48736 1800.00000 15170.00000
21.50 48.00000 1.49685 1792.00000 15016.00000
21.52 52.00000 1.49685 1774.00000 14974.00000
21.54 58.00000 1.48736 1740.00000 14876.00000
21.56 44.00000 1.48736 1738.00000 14780.00000
21.58 40.00000 1.50634 1694.00000 14858.00000
21.60 30.00000 1.48736 1724.00000 14970.00000
21.62 44.00000 1.48736 1722.00000 15168.00000
21.64 42.00000 1.49685 1780.00000 15162.00000
21.66 36.00000 1.49685 1854.00000 15176.00000
21.68 32.00000 1.48736 1852.00000 15166.00000
21.70 34.00000 1.48736 1780.00000 15408.00000
21.72 40.00000 1.50634 1888.00000 15290.00000
21.74 38.00000 1.50634 1866.00000 15248.00000
21.76 34.00000 1.49685 1918.00000 14962.00000
21.78 36.00000 1.50634 1736.00000 15104.00000
21.80 30.00000 1.50634 1762.00000 15050.00000
21.82 32.00000 1.50634 1778.00000 15072.00000
21.84 38.00000 1.50634 1812.00000 15002.00000
21.86 38.00000 1.51584 1832.00000 15082.00000
21.88 30.00000 1.51584 1846.00000 15158.00000
21.90 44.00000 1.51584 1866.00000 15208.00000
21.92 42.00000 1.50634 1868.00000 15278.00000
21.94 50.00000 1.48736 1876.00000 15252.00000
21.96 36.00000 1.46837 1822.00000 15262.00000
21.98 26.00000 1.47786 1828.00000 15266.00000
22.00 28.00000 1.50634 1762.00000 15292.00000
22.02 40.00000 1.52533 1810.00000 15152.00000
22.04 50.00000 1.51584 1850.00000 15222.00000
22.06 46.00000 1.49685 1856.00000 15312.00000
22.08 36.00000 1.46837 1926.00000 15332.00000
22.10 34.00000 1.47786 1962.00000 15284.00000
22.12 32.00000 1.50634 1930.00000 15368.00000
22.14 32.00000 1.51584 1838.00000 15336.00000
22.16 28.00000 1.52533 1850.00000 15138.00000
22.18 26.00000 1.52533 1928.00000 15190.00000
22.20 32.00000 1.51584 1976.00000 15376.00000
22.22 26.00000 1.50634 1906.00000 15532.00000
22.24 32.00000 1.48736 1908.00000 15548.00000
22.26 32.00000 1.47786 1936.00000 15492.00000
22.28 38.00000 1.46837 1944.00000 15314.00000
22.30 34.00000 1.46837 1852.00000 15014.00000
22.32 40.00000 1.46837 1772.00000 14816.00000
22.34 36.00000 1.47786 1758.00000 14938.00000
22.36 36.00000 1.49685 1746.00000 15084.00000
22.38 40.00000 1.51584 1848.00000 15194.00000
22.40 44.00000 1.52533 1872.00000 15258.00000
22.42 48.00000 1.52533 1904.00000 15226.00000
22.44 44.00000 1.51584 1910.00000 15204.00000
22.46 38.00000 1.49685 2002.00000 14972.00000
22.48 32.00000 1.48736 1992.00000 14972.00000
22.50 24.00000 1.49685 1946.00000 14872.00000
22.52 26.00000 1.50634 1904.00000 15044.00000
22.54 36.00000 1.50634 1764.00000 15224.00000
22.56 34.00000 1.50634 1854.00000 15402.00000
22.58 46.00000 1.50634 1810.00000 15574.00000
22.60 40.00000 1.51584 1968.00000 15374.00000
22.62 36.00000 1.51584 1982.00000 15402.00000
22.64 40.00000 1.50634 2036.00000 15490.00000
22.66 30.00000 1.50634 1990.00000 15406.00000
22.68 44.00000 1.49685 1966.00000 15304.00000
22.70 58.00000 1.49685 1842.00000 15072.00000
22.72 62.00000 1.48736 1798.00000 15122.00000
22.74 50.00000 1.49685 1860.00000 15532.00000
22.76 42.00000 1.50634 1928.00000 15590.00000
22.78 56.00000 1.49685 1926.00000 15630.00000
22.80 64.00000 1.48736 1922.00000 15328.00000
22.82 64.00000 1.49685 1830.00000 15394.00000
22.84 52.00000 1.50634 1848.00000 15372.00000
22.86 44.00000 1.49685 1860.00000 15484.00000
22.88 34.00000 1.47786 1814.00000 15494.00000
22.90 34.00000 1.48736 1818.00000 15354.00000
22.92 42.00000 1.50634 1920.00000 15272.00000
22.94 38.00000 1.51584 2028.00000 15178.00000
22.96 34.00000 1.51584 1990.00000 15268.00000
22.98 28.00000 1.49685 1966.00000 15170.00000
23.00 36.00000 1.46837 1844.00000 15048.00000
23.02 42.00000 1.46837 1888.00000 15252.00000
23.04 44.00000 1.48736 1894.00000 15412.00000
23.06 42.00000 1.51584 1932.00000 15412.00000
23.08 36.00000 1.51584 1904.00000 15468.00000
23.10 50.00000 1.50634 1956.00000 15464.00000
23.12 44.00000 1.48736 1992.00000 15376.00000
23.14 42.00000 1.49685 1920.00000 15158.00000
23.16 28.00000 1.51584 1946.00000 15172.00000
23.18 44.00000 1.52533 1986.00000 15280.00000
23.20 50.00000 1.50634 2014.00000 15318.00000
23.22 46.00000 1.48736 2008.00000 15346.00000
23.24 32.00000 1.49685 1980.00000 15132.00000
23.26 38.00000 1.50634 1980.00000 15230.00000
23.28 48.00000 1.51584 1916.00000 15156.00000
23.30 48.00000 1.48736 1966.00000 15422.00000
23.32 32.00000 1.46837 1978.00000 15562.00000
23.34 24.00000 1.47786 1974.00000 15694.00000
23.36 38.00000 1.50634 2050.00000 15570.00000
23.38 42.00000 1.51584 2144.00000 15380.00000
23.40 62.00000 1.48736 2108.00000 15300.00000
23.42 56.00000 1.47786 2086.00000 15518.00000
23.44 72.00000 1.48736 2120.00000 15554.00000
23.46 50.00000 1.51584 2142.00000 15782.00000
23.48 40.00000 1.50634 2058.00000 16248.00000
23.50 46.00000 1.48736 2016.00000 16100.00000
23.52 48.00000 1.48736 1946.00000 16382.00000
23.54 48.00000 1.49685 2068.00000 16234.00000
23.56 36.00000 1.51584 2126.00000 15906.00000
23.58 32.00000 1.49685 2322.00000 15668.00000
23.60 36.00000 1.47786 2300.00000 15400.00000
23.62 42.00000 1.47786 2230.00000 15130.00000
23.64 46.00000 1.50634 2184.00000 15010.00000
23.66 52.00000 1.50634 2118.00000 15208.00000
23.68 46.00000 1.48736 2088.00000 16044.00000
23.70 40.00000 1.47786 2084.00000 16740.00000
23.72 34.00000 1.47786 2104.00000 17198.00000
23.74 38.00000 1.58229 2060.00000 17126.00000
23.76 46.00000 1.73419 2130.00000 16912.00000
23.78 54.00000 2.42723 2108.00000 16134.00000
23.80 62.00000 2.69305 2172.00000 15766.00000
23.82 50.00000 3.00634 2250.00000 15566.00000
23.84 52.00000 2.67406 2262.00000 15520.00000
23.86 44.00000 2.25634 2194.00000 15514.00000
23.88 58.00000 2.08546 2072.00000 15460.00000
23.90 50.00000 1.76267 2026.00000 15522.00000
23.92 36.00000 1.83862 1938.00000 15346.00000
23.94 40.00000 2.15191 1866.00000 15332.00000
23.96 50.00000 2.75950 1880.00000 15414.00000
23.98 46.00000 3.11077 1904.00000 15556.00000
24.00 38.00000 3.13925 1982.00000 15606.00000
24.02 34.00000 2.93988 1938.00000 15648.00000
24.04 36.00000 2.94938 1968.00000 15552.00000
24.06 40.00000 2.94938 1930.00000 15540.00000
24.08 62.00000 3.13925 1936.00000 15648.00000
24.10 70.00000 3.12976 1892.00000 15686.00000
24.12 62.00000 3.12976 1874.00000 15812.00000
24.14 48.00000 3.12976 1876.00000 15486.00000
24.16 42.00000 3.15824 1826.00000 15286.00000
24.18 44.00000 3.17723 1708.00000 15258.00000
24.20 36.00000 3.19621 1702.00000 15320.00000
24.22 32.00000 3.19621 1742.00000 15446.00000
24.24 42.00000 3.19621 1738.00000 15424.00000
24.26 54.00000 3.19621 1804.00000 15398.00000
24.28 60.00000 3.15824 1876.00000 15392.00000
24.30 60.00000 2.77849 1922.00000 15320.00000
24.32 62.00000 2.79748 1918.00000 15262.00000
24.34 54.00000 2.83545 1890.00000 15030.00000
24.36 38.00000 3.17723 1890.00000 15114.00000
24.38 38.00000 3.15824 1872.00000 15040.00000
24.40 52.00000 3.15824 1812.00000 15082.00000
24.42 60.00000 3.10128 1802.00000 15090.00000
24.44 62.00000 3.00634 1800.00000 14836.00000
24.46 42.00000 2.97786 1842.00000 14868.00000
24.48 40.00000 3.01583 1830.00000 14950.00000
24.50 44.00000 3.05381 1774.00000 15160.00000
24.52 48.00000 3.08229 1746.00000 15232.00000
24.54 56.00000 3.02533 1762.00000 15206.00000
24.56 56.00000 3.00634 1690.00000 15306.00000
24.58 62.00000 2.98735 1728.00000 15224.00000
24.60 58.00000 3.01583 1746.00000 15200.00000
24.62 48.00000 3.03482 1782.00000 15190.00000
24.64 42.00000 3.03482 1794.00000 15242.00000
24.66 44.00000 3.00634 1810.00000 15118.00000
24.68 36.00000 3.01583 1804.00000 15070.00000
24.70 30.00000 3.04431 1708.00000 14854.00000
24.72 14.00000 3.07279 1698.00000 15104.00000
24.74 32.00000 3.06330 1778.00000 15168.00000
24.76 34.00000 3.09178 1812.00000 15120.00000
