~Version
VERS. 2.0
WRAP. NO
~Well
STRT.M 0.82
STOP.M 59.52
STEP.M 0.02
NULL. -999.0
WELL. SYNTH_A
DATE. 2025-12-31
~Curve
DEPT.M
GR.CPS
CL.IN
LD.CPS
SD.CPS
~A
# ...
42.22 50.00000 2.18039 1164.00000 13032.00000
42.24 44.00000 2.18039 1162.00000 13294.00000
42.26 38.00000 2.18039 1148.00000 13580.00000
42.28 48.00000 2.18039 1138.00000 13782.00000
42.30 52.00000 2.18989 1184.00000 14028.00000
42.32 48.00000 2.18989 1234.00000 14224.00000
42.34 36.00000 2.18039 1232.00000 14134.00000
42.36 30.00000 2.18039 1328.00000 13866.00000
42.38 32.00000 2.17090 1384.00000 13822.00000
42.40 36.00000 2.17090 1382.00000 13672.00000
42.42 38.00000 2.18039 1380.00000 13888.00000
42.44 34.00000 2.18989 1350.00000 13980.00000
42.46 22.00000 2.18989 1358.00000 14050.00000
42.48 28.00000 2.17090 1304.00000 13874.00000
42.50 22.00000 2.14242 1310.00000 13722.00000
42.52 24.00000 2.14242 1356.00000 13868.00000
42.54 32.00000 2.16141 1402.00000 13972.00000
42.56 42.00000 2.18039 1462.00000 14126.00000
42.58 56.00000 2.18039 1414.00000 13944.00000
42.60 62.00000 2.18039 1350.00000 14084.00000
42.62 62.00000 2.17090 1322.00000 14280.00000
42.64 46.00000 2.16141 1326.00000 14340.00000
42.66 38.00000 2.16141 1284.00000 14264.00000
42.68 44.00000 2.14242 1286.00000 14184.00000
42.70 42.00000 2.16141 1304.00000 14062.00000
42.72 56.00000 2.18039 1266.00000 13952.00000
42.74 58.00000 2.18989 1276.00000 13912.00000
42.76 54.00000 2.18989 1300.00000 13864.00000
42.78 42.00000 2.17090 1286.00000 13746.00000
42.80 42.00000 2.16141 1320.00000 13638.00000
42.82 38.00000 2.16141 1286.00000 13486.00000
42.84 32.00000 2.15191 1324.00000 13396.00000
42.86 42.00000 2.16141 1350.00000 13538.00000
42.88 36.00000 2.16141 1338.00000 13398.00000
42.90 38.00000 2.14242 1362.00000 13440.00000
42.92 40.00000 2.15191 1298.00000 13516.00000
42.94 26.00000 2.14242 1210.00000 13790.00000
42.96 22.00000 2.16141 1276.00000 13854.00000
42.98 32.00000 2.15191 1252.00000 13876.00000
43.00 38.00000 2.15191 1252.00000 14048.00000
43.02 48.00000 2.16141 1320.00000 14274.00000
43.04 42.00000 2.15191 1386.00000 14312.00000
43.06 40.00000 2.14242 1456.00000 14414.00000
43.08 38.00000 2.11394 1448.00000 14344.00000
43.10 44.00000 2.11394 1410.00000 14324.00000
43.12 44.00000 2.12343 1370.00000 14448.00000
43.14 48.00000 2.13292 1320.00000 14332.00000
43.16 46.00000 2.13292 1432.00000 14502.00000
43.18 36.00000 2.14242 1506.00000 14396.00000
43.20 32.00000 2.15191 1488.00000 14304.00000
43.22 46.00000 2.15191 1342.00000 14156.00000
43.24 32.00000 2.15191 1324.00000 14252.00000
43.26 34.00000 2.15191 1398.00000 14162.00000
43.28 46.00000 2.14242 1454.00000 14182.00000
43.30 44.00000 2.12343 1382.00000 14292.00000
43.32 28.00000 2.11394 1382.00000 14076.00000
43.34 26.00000 2.11394 1398.00000 14140.00000
43.36 38.00000 2.13292 1410.00000 14314.00000
43.38 42.00000 2.14242 1358.00000 14300.00000
43.40 48.00000 2.12343 1356.00000 14226.00000
43.42 38.00000 2.15191 1390.00000 14268.00000
43.44 36.00000 2.15191 1402.00000 14426.00000
43.46 42.00000 2.15191 1404.00000 14694.00000
43.48 44.00000 2.15191 1340.00000 14732.00000
43.50 46.00000 2.17090 1300.00000 14578.00000
43.52 42.00000 2.16141 1340.00000 14560.00000
43.54 48.00000 2.17090 1398.00000 14910.00000
43.56 50.00000 2.15191 1398.00000 14954.00000
43.58 44.00000 2.17090 1392.00000 14960.00000
43.60 48.00000 2.17090 1356.00000 14930.00000
43.62 38.00000 2.17090 1386.00000 14846.00000
43.64 36.00000 2.16141 1384.00000 14704.00000
43.66 26.00000 2.13292 1424.00000 14910.00000
43.68 40.00000 2.12343 1472.00000 14602.00000
43.70 38.00000 2.13292 1434.00000 14458.00000
43.72 50.00000 2.14242 1412.00000 14406.00000
43.74 44.00000 2.14242 1414.00000 14440.00000
43.76 52.00000 2.14242 1402.00000 14312.00000
43.78 50.00000 2.15191 1376.00000 14280.00000
43.80 52.00000 2.14242 1370.00000 14316.00000
43.82 52.00000 2.14242 1340.00000 14356.00000
43.84 36.00000 2.14242 1322.00000 14444.00000
43.86 30.00000 2.15191 1288.00000 14376.00000
43.88 26.00000 2.15191 1294.00000 14450.00000
43.90 32.00000 2.15191 1248.00000 14134.00000
43.92 48.00000 2.14242 1260.00000 14046.00000
43.94 46.00000 2.14242 1220.00000 13856.00000
43.96 42.00000 2.12343 1162.00000 13874.00000
43.98 28.00000 2.13292 1204.00000 13926.00000
44.00 20.00000 2.14242 1216.00000 13714.00000
44.02 26.00000 2.15191 1186.00000 13850.00000
44.04 22.00000 2.15191 1150.00000 13876.00000
44.06 24.00000 2.16141 1132.00000 13840.00000
44.08 38.00000 2.15191 1130.00000 13848.00000
44.10 48.00000 2.15191 1080.00000 13768.00000
44.12 42.00000 2.14242 1028.00000 13448.00000
44.14 34.00000 2.15191 966.00000 12768.00000
44.16 32.00000 2.16141 940.00000 12264.00000
44.18 38.00000 2.15191 888.00000 12006.00000
44.20 28.00000 2.15191 874.00000 11894.00000
44.22 26.00000 2.16141 874.00000 11722.00000
44.24 24.00000 2.17090 860.00000 11374.00000
44.26 12.00000 2.16141 838.00000 11418.00000
44.28 24.00000 2.16141 806.00000 11602.00000
44.30 26.00000 2.15191 862.00000 11754.00000
44.32 18.00000 2.15191 926.00000 11940.00000
44.34 18.00000 2.15191 930.00000 12100.00000
44.36 24.00000 2.15191 870.00000 12356.00000
44.38 20.00000 2.15191 930.00000 12556.00000
44.40 16.00000 2.18989 1130.00000 12888.00000
44.42 16.00000 2.17090 1162.00000 13386.00000
44.44 20.00000 2.15191 1164.00000 13752.00000
44.46 24.00000 2.13292 1150.00000 13796.00000
44.48 30.00000 2.14242 1152.00000 13744.00000
44.50 36.00000 2.15191 1158.00000 13784.00000
44.52 34.00000 2.17090 1108.00000 13716.00000
44.54 38.00000 2.15191 1150.00000 13608.00000
44.56 36.00000 2.14242 1224.00000 13876.00000
44.58 40.00000 2.13292 1226.00000 13730.00000
44.60 42.00000 2.15191 1264.00000 13542.00000
44.62 52.00000 2.16141 1240.00000 13492.00000
44.64 60.00000 2.15191 1238.00000 13678.00000
44.66 52.00000 2.16141 1260.00000 13626.00000
44.68 42.00000 2.16141 1270.00000 13716.00000
44.70 44.00000 2.16141 1336.00000 13786.00000
44.72 32.00000 2.14242 1278.00000 13946.00000
44.74 38.00000 2.16141 1230.00000 13978.00000
44.76 36.00000 2.17090 1258.00000 13952.00000
44.78 22.00000 2.15191 1272.00000 13854.00000
44.80 38.00000 2.16141 1176.00000 13738.00000
44.82 52.00000 2.14242 1232.00000 13402.00000
44.84 46.00000 2.15191 1192.00000 13466.00000
44.86 44.00000 2.14242 1216.00000 13654.00000
44.88 42.00000 2.16141 1252.00000 13790.00000
44.90 28.00000 2.14242 1224.00000 13562.00000
44.92 36.00000 2.15191 1194.00000 13514.00000
44.94 54.00000 2.15191 1252.00000 13376.00000
44.96 54.00000 2.15191 1230.00000 13534.00000
44.98 42.00000 2.15191 1190.00000 13594.00000
45.00 42.00000 2.15191 1156.00000 13590.00000
45.02 52.00000 2.15191 1142.00000 13398.00000
45.04 54.00000 2.14242 1180.00000 13528.00000
45.06 52.00000 2.15191 1152.00000 13598.00000
45.08 34.00000 2.15191 1142.00000 13762.00000
45.10 30.00000 2.14242 1170.00000 13906.00000
45.12 34.00000 2.15191 1162.00000 13736.00000
45.14 40.00000 2.15191 1164.00000 13578.00000
45.16 40.00000 2.14242 1242.00000 13504.00000
45.18 40.00000 2.14242 1228.00000 13424.00000
45.20 48.00000 2.14242 1220.00000 13500.00000
45.22 40.00000 2.15191 1202.00000 13388.00000
45.24 24.00000 2.15191 1132.00000 13284.00000
45.26 20.00000 2.15191 1162.00000 13230.00000
45.28 28.00000 2.14242 1228.00000 13394.00000
45.30 34.00000 2.14242 1250.00000 13518.00000
45.32 34.00000 2.14242 1270.00000 13698.00000
45.34 36.00000 2.15191 1260.00000 13500.00000
45.36 42.00000 2.14242 1298.00000 13524.00000
45.38 46.00000 2.15191 1264.00000 13702.00000
45.40 54.00000 2.13292 1160.00000 13620.00000
45.42 58.00000 2.13292 1184.00000 13636.00000
45.44 46.00000 2.14242 1208.00000 13878.00000
45.46 46.00000 2.15191 1152.00000 13996.00000
45.48 42.00000 2.15191 1150.00000 13808.00000
45.50 40.00000 2.16141 1216.00000 13308.00000
45.52 46.00000 2.16141 1256.00000 13398.00000
45.54 52.00000 2.16141 1292.00000 13378.00000
45.56 48.00000 2.15191 1254.00000 13646.00000
45.58 44.00000 2.16141 1346.00000 13756.00000
45.60 42.00000 2.15191 1320.00000 13760.00000
45.62 34.00000 2.15191 1254.00000 13700.00000
45.64 48.00000 2.16141 1286.00000 13714.00000
45.66 44.00000 2.14242 1228.00000 13700.00000
45.68 42.00000 2.16141 1194.00000 13468.00000
45.70 34.00000 2.18039 1172.00000 13656.00000
