~Version
VERS. 2.0
WRAP. NO
~Well
STRT.M 0.27
STOP.M 59.83
STEP.M 0.02
NULL. -999.0
WELL. SYNTH_B
DATE. 2025-12-31
~Curve
DEPT.M
GR.CPS
CL.IN
LD.CPS
SD.CPS
~A
# ...
3.76 18.00000 3.06330 1910.00000 15784.00000
3.78 14.00000 3.06330 1954.00000 15528.00000
3.80 16.00000 3.07279 1902.00000 15264.00000
3.82 10.00000 3.07279 1954.00000 15326.00000
3.84 10.00000 3.08229 1916.00000 15340.00000
3.86 8.00000 3.08229 1858.00000 15548.00000
3.88 12.00000 3.06330 1842.00000 15556.00000
3.90 14.00000 3.06330 1774.00000 15664.00000
3.92 10.00000 3.06330 1832.00000 15620.00000
3.94 12.00000 3.06330 1864.00000 15716.00000
3.96 14.00000 3.06330 1944.00000 15754.00000
3.98 20.00000 3.07279 1934.00000 15806.00000
4.00 30.00000 3.08229 1864.00000 15624.00000
4.02 26.00000 3.08229 1882.00000 15472.00000
4.04 20.00000 3.07279 1810.00000 15648.00000
4.06 14.00000 3.08229 1876.00000 16102.00000
4.08 12.00000 3.07279 1816.00000 16542.00000
4.10 10.00000 3.07279 1892.00000 16592.00000
4.12 16.00000 3.07279 1958.00000 16668.00000
4.14 18.00000 3.07279 2090.00000 16770.00000
4.16 22.00000 3.06330 2210.00000 16898.00000
4.18 16.00000 3.07279 2246.00000 17012.00000
4.20 18.00000 3.07279 2244.00000 16826.00000
4.22 28.00000 3.06330 2280.00000 16592.00000
4.24 28.00000 2.97786 2488.00000 16672.00000
4.26 32.00000 2.61710 2446.00000 16810.00000
4.28 14.00000 2.44621 2418.00000 16858.00000
4.30 6.00000 2.15191 2378.00000 16492.00000
4.32 10.00000 2.16141 2460.00000 16514.00000
4.34 18.00000 2.15191 2406.00000 16374.00000
4.36 20.00000 2.15191 2436.00000 16294.00000
4.38 20.00000 2.14242 2426.00000 16308.00000
4.40 26.00000 2.14242 2454.00000 16162.00000
4.42 24.00000 2.14242 2408.00000 16218.00000
4.44 20.00000 2.14242 2422.00000 15946.00000
4.46 14.00000 2.12343 2450.00000 15916.00000
4.48 20.00000 2.11394 2502.00000 15964.00000
4.50 12.00000 2.12343 2530.00000 16148.00000
4.52 22.00000 2.13292 2420.00000 16362.00000
4.54 24.00000 2.13292 2360.00000 16460.00000
4.56 26.00000 2.11394 2430.00000 16368.00000
4.58 14.00000 2.10444 2514.00000 16334.00000
4.60 10.00000 2.11394 2510.00000 16132.00000
4.62 6.00000 2.11394 2478.00000 16226.00000
4.64 6.00000 2.11394 2510.00000 16234.00000
4.66 20.00000 2.10444 2562.00000 16360.00000
4.68 24.00000 2.10444 2478.00000 16310.00000
4.70 16.00000 2.10444 2462.00000 16244.00000
4.72 6.00000 2.10444 2374.00000 16228.00000
4.74 6.00000 2.10444 2380.00000 16446.00000
4.76 6.00000 2.11394 2358.00000 16478.00000
4.78 16.00000 2.12343 2388.00000 16294.00000
4.80 18.00000 2.11394 2464.00000 16382.00000
4.82 18.00000 2.09495 2518.00000 16640.00000
4.84 10.00000 2.10444 2568.00000 16582.00000
4.86 6.00000 2.10444 2442.00000 16440.00000
4.88 10.00000 2.10444 2406.00000 16312.00000
4.90 12.00000 2.09495 2370.00000 16540.00000
4.92 22.00000 2.07596 2402.00000 16776.00000
4.94 24.00000 2.06647 2480.00000 17272.00000
4.96 24.00000 2.06647 2522.00000 17226.00000
4.98 24.00000 2.08546 2478.00000 16840.00000
5.00 26.00000 2.06647 2434.00000 16862.00000
5.02 36.00000 2.00001 2480.00000 16844.00000
5.04 38.00000 1.93356 2482.00000 16824.00000
5.06 30.00000 1.89558 2518.00000 16480.00000
5.08 20.00000 1.88609 2516.00000 16486.00000
5.10 14.00000 1.88609 2512.00000 16362.00000
5.12 16.00000 1.87660 2442.00000 16448.00000
5.14 14.00000 1.86710 2378.00000 16548.00000
5.16 20.00000 1.83862 2250.00000 16468.00000
5.18 20.00000 1.81963 2242.00000 16286.00000
5.20 20.00000 1.81014 2232.00000 16126.00000
5.22 26.00000 1.81014 2258.00000 15926.00000
5.24 22.00000 1.81014 2194.00000 16036.00000
5.26 18.00000 1.78166 2134.00000 15924.00000
5.28 24.00000 1.78166 2176.00000 15840.00000
5.30 28.00000 1.78166 2162.00000 15834.00000
5.32 30.00000 1.79115 2028.00000 16010.00000
5.34 24.00000 1.78166 1960.00000 16062.00000
5.36 26.00000 1.76267 2034.00000 15678.00000
5.38 24.00000 1.76267 2044.00000 15730.00000
5.40 20.00000 1.74369 2030.00000 15572.00000
5.42 20.00000 1.72470 1990.00000 15446.00000
5.44 26.00000 1.71520 1926.00000 15146.00000
5.46 26.00000 1.72470 1964.00000 15142.00000
5.48 22.00000 1.70571 2008.00000 15334.00000
5.50 18.00000 1.70571 2026.00000 15392.00000
5.52 12.00000 1.70571 1940.00000 15412.00000
5.54 20.00000 1.71520 2000.00000 15454.00000
5.56 22.00000 1.70571 1940.00000 15682.00000
5.58 26.00000 1.67723 1954.00000 15946.00000
5.60 18.00000 1.65824 1890.00000 15928.00000
5.62 14.00000 1.67723 1954.00000 15838.00000
5.64 14.00000 1.68672 2040.00000 15870.00000
5.66 16.00000 1.68672 2152.00000 16014.00000
5.68 20.00000 1.66774 2132.00000 16102.00000
5.70 18.00000 1.66774 2286.00000 16174.00000
5.72 12.00000 1.66774 2246.00000 16248.00000
5.74 16.00000 1.66774 2350.00000 16302.00000
5.76 14.00000 1.65824 2360.00000 16630.00000
5.78 14.00000 1.62976 2308.00000 16548.00000
5.80 20.00000 1.60128 2122.00000 16682.00000
5.82 20.00000 1.57280 2132.00000 16662.00000
5.84 28.00000 1.55381 2196.00000 16852.00000
5.86 26.00000 1.53483 2182.00000 16800.00000
5.88 24.00000 1.51584 2208.00000 16560.00000
5.90 14.00000 1.49685 2172.00000 16388.00000
5.92 30.00000 1.48736 2160.00000 16298.00000
5.94 36.00000 1.50634 2104.00000 16032.00000
5.96 38.00000 1.51584 2066.00000 15588.00000
5.98 34.00000 1.52533 1992.00000 15518.00000
6.00 34.00000 1.51584 1848.00000 15130.00000
6.02 34.00000 1.51584 1732.00000 14940.00000
6.04 32.00000 1.51584 1710.00000 14604.00000
6.06 32.00000 1.52533 1764.00000 14474.00000
6.08 20.00000 1.52533 1770.00000 14468.00000
6.10 22.00000 1.52533 1728.00000 14776.00000
6.12 24.00000 1.52533 1570.00000 14836.00000
6.14 32.00000 1.52533 1548.00000 14982.00000
6.16 34.00000 1.52533 1612.00000 15018.00000
6.18 32.00000 1.52533 1664.00000 14798.00000
6.20 32.00000 1.52533 1676.00000 14808.00000
6.22 22.00000 1.52533 1656.00000 14598.00000
6.24 20.00000 1.51584 1598.00000 14674.00000
6.26 16.00000 1.49685 1576.00000 14678.00000
6.28 24.00000 1.49685 1524.00000 14734.00000
6.30 18.00000 1.52533 1562.00000 14852.00000
6.32 16.00000 1.52533 1596.00000 14760.00000
6.34 22.00000 1.52533 1568.00000 14970.00000
6.36 28.00000 1.52533 1566.00000 15066.00000
6.38 24.00000 1.52533 1544.00000 15182.00000
6.40 26.00000 1.52533 1546.00000 15112.00000
6.42 20.00000 1.52533 1544.00000 15084.00000
6.44 24.00000 1.52533 1556.00000 15090.00000
6.46 24.00000 1.52533 1620.00000 15256.00000
6.48 26.00000 1.52533 1566.00000 15388.00000
6.50 20.00000 1.52533 1572.00000 15450.00000
6.52 18.00000 1.52533 1498.00000 15404.00000
6.54 14.00000 1.52533 1510.00000 15278.00000
6.56 8.00000 1.52533 1570.00000 15000.00000
6.58 6.00000 1.52533 1552.00000 14718.00000
6.60 10.00000 1.52533 1508.00000 14672.00000
6.62 16.00000 1.52533 1504.00000 14730.00000
6.64 14.00000 1.52533 1536.00000 14704.00000
6.66 14.00000 1.52533 1448.00000 14682.00000
6.68 18.00000 1.52533 1412.00000 14618.00000
6.70 16.00000 1.52533 1346.00000 14480.00000
6.72 20.00000 1.52533 1462.00000 14412.00000
6.74 20.00000 1.52533 1500.00000 14530.00000
6.76 20.00000 1.52533 1530.00000 14516.00000
6.78 18.00000 1.52533 1546.00000 14474.00000
6.80 24.00000 1.52533 1572.00000 14378.00000
6.82 24.00000 1.52533 1534.00000 14252.00000
6.84 28.00000 1.52533 1596.00000 14146.00000
6.86 26.00000 1.52533 1598.00000 14332.00000
6.88 24.00000 1.52533 1654.00000 14426.00000
6.90 24.00000 1.52533 1556.00000 14532.00000
6.92 20.00000 1.52533 1566.00000 14676.00000
6.94 28.00000 1.52533 1586.00000 14672.00000
6.96 36.00000 1.52533 1600.00000 14710.00000
6.98 48.00000 1.52533 1632.00000 14490.00000
7.00 42.00000 1.52533 1658.00000 14502.00000
7.02 30.00000 1.52533 1692.00000 14662.00000
7.04 24.00000 1.52533 1732.00000 14848.00000
7.06 20.00000 1.52533 1734.00000 15070.00000
7.08 22.00000 1.52533 1670.00000 15060.00000
7.10 16.00000 1.52533 1642.00000 14952.00000
7.12 14.00000 1.52533 1562.00000 14704.00000
7.14 18.00000 1.52533 1586.00000 14802.00000
7.16 28.00000 1.52533 1588.00000 14968.00000
7.18 38.00000 1.52533 1570.00000 14888.00000
7.20 42.00000 1.52533 1644.00000 14738.00000
7.22 32.00000 1.52533 1618.00000 14496.00000
7.24 24.00000 1.52533 1584.00000 14392.00000
7.26 14.00000 1.52533 1548.00000 14516.00000
7.28 24.00000 1.52533 1562.00000 14434.00000
7.30 22.00000 1.52533 1534.00000 14658.00000
