~Version
VERS. 2.0
WRAP. NO
~Well
STRT.M 0.27
STOP.M 59.83
STEP.M 0.02
NULL. -999.0
WELL. SYNTH_B
DATE. 2025-12-31
~Curve
DEPT.M
GR.CPS
CL.IN
LD.CPS
SD.CPS
~A
# ...
7.32 18.00000 1.52533 1466.00000 14424.00000
7.34 18.00000 1.52533 1466.00000 14400.00000
7.36 18.00000 1.52533 1426.00000 14392.00000
7.38 34.00000 1.52533 1440.00000 14132.00000
7.40 28.00000 1.52533 1416.00000 13876.00000
7.42 32.00000 1.52533 1452.00000 13456.00000
7.44 18.00000 1.52533 1450.00000 13346.00000
7.46 22.00000 1.52533 1456.00000 13282.00000
7.48 20.00000 1.52533 1448.00000 13084.00000
7.50 18.00000 1.52533 1450.00000 13104.00000
7.52 18.00000 1.52533 1492.00000 13572.00000
7.54 26.00000 1.52533 1458.00000 13876.00000
7.56 32.00000 1.52533 1450.00000 14378.00000
7.58 28.00000 1.52533 1406.00000 14562.00000
7.60 20.00000 1.50634 1364.00000 14752.00000
7.62 28.00000 1.48736 1306.00000 14750.00000
7.64 30.00000 1.48736 1378.00000 14874.00000
7.66 30.00000 1.50634 1430.00000 14524.00000
7.68 14.00000 1.52533 1512.00000 14146.00000
7.70 20.00000 1.52533 1478.00000 13724.00000
7.72 26.00000 1.52533 1374.00000 13674.00000
7.74 28.00000 1.52533 1300.00000 13284.00000
7.76 22.00000 1.52533 1288.00000 13174.00000
7.78 16.00000 1.52533 1406.00000 13030.00000
7.80 20.00000 1.52533 1494.00000 12942.00000
7.82 24.00000 1.52533 1566.00000 13196.00000
7.84 32.00000 1.52533 1506.00000 13644.00000
7.86 32.00000 1.52533 1466.00000 13880.00000
7.88 36.00000 1.52533 1460.00000 14188.00000
7.90 24.00000 1.50634 1446.00000 14386.00000
7.92 32.00000 1.50634 1478.00000 14460.00000
7.94 40.00000 1.50634 1514.00000 14524.00000
7.96 38.00000 1.52533 1606.00000 14802.00000
7.98 36.00000 1.52533 1642.00000 15110.00000
8.00 28.00000 1.52533 1544.00000 15156.00000
8.02 34.00000 1.52533 1540.00000 15064.00000
8.04 28.00000 1.52533 1542.00000 15108.00000
8.06 38.00000 1.52533 1600.00000 15190.00000
8.08 40.00000 1.52533 1506.00000 15104.00000
8.10 36.00000 1.52533 1568.00000 14918.00000
8.12 28.00000 1.52533 1616.00000 14808.00000
8.14 22.00000 1.51584 1694.00000 15062.00000
8.16 34.00000 1.51584 1692.00000 15284.00000
8.18 28.00000 1.51584 1710.00000 15404.00000
8.20 40.00000 1.52533 1768.00000 15368.00000
8.22 24.00000 1.52533 1730.00000 15234.00000
8.24 22.00000 1.52533 1694.00000 15356.00000
8.26 8.00000 1.52533 1642.00000 15174.00000
8.28 20.00000 1.52533 1700.00000 15230.00000
8.30 32.00000 1.50634 1660.00000 14950.00000
8.32 36.00000 1.50634 1658.00000 15046.00000
8.34 30.00000 1.50634 1718.00000 15142.00000
8.36 30.00000 1.52533 1718.00000 15128.00000
8.38 40.00000 1.52533 1802.00000 15224.00000
8.40 40.00000 1.52533 1694.00000 15088.00000
8.42 44.00000 1.52533 1676.00000 15156.00000
8.44 40.00000 1.52533 1642.00000 15374.00000
8.46 38.00000 1.52533 1696.00000 15418.00000
8.48 28.00000 1.52533 1654.00000 15204.00000
8.50 24.00000 1.52533 1560.00000 14756.00000
8.52 32.00000 1.52533 1516.00000 14554.00000
8.54 34.00000 1.52533 1510.00000 14470.00000
8.56 36.00000 1.50634 1546.00000 14528.00000
8.58 38.00000 1.49685 1508.00000 14536.00000
8.60 36.00000 1.49685 1544.00000 14472.00000
8.62 20.00000 1.51584 1552.00000 14356.00000
8.64 16.00000 1.52533 1612.00000 14516.00000
8.66 8.00000 1.52533 1546.00000 14506.00000
8.68 16.00000 1.52533 1552.00000 14826.00000
8.70 20.00000 1.52533 1594.00000 14684.00000
8.72 28.00000 1.52533 1626.00000 14796.00000
8.74 32.00000 1.52533 1644.00000 14546.00000
8.76 24.00000 1.52533 1680.00000 14418.00000
8.78 22.00000 1.52533 1684.00000 14402.00000
8.80 16.00000 1.52533 1698.00000 14782.00000
8.82 18.00000 1.52533 1732.00000 14882.00000
8.84 18.00000 1.52533 1748.00000 14726.00000
8.86 20.00000 1.52533 1710.00000 14404.00000
8.88 18.00000 1.52533 1718.00000 14458.00000
8.90 22.00000 1.50634 1778.00000 14554.00000
8.92 26.00000 1.50634 1728.00000 14638.00000
8.94 28.00000 1.50634 1738.00000 14862.00000
8.96 30.00000 1.52533 1756.00000 14870.00000
8.98 38.00000 1.52533 1878.00000 15146.00000
9.00 40.00000 1.52533 1936.00000 15174.00000
9.02 40.00000 1.52533 1896.00000 15070.00000
9.04 20.00000 1.52533 1886.00000 15264.00000
9.06 22.00000 1.52533 1896.00000 15442.00000
9.08 20.00000 1.52533 1874.00000 15420.00000
9.10 30.00000 1.52533 1868.00000 15520.00000
9.12 32.00000 1.52533 1836.00000 15702.00000
9.14 32.00000 1.52533 1838.00000 15888.00000
9.16 30.00000 1.52533 1836.00000 15644.00000
9.18 32.00000 1.52533 1804.00000 15436.00000
9.20 32.00000 1.52533 1862.00000 15186.00000
9.22 24.00000 1.50634 1862.00000 15258.00000
9.24 26.00000 1.50634 1854.00000 15006.00000
9.26 26.00000 1.50634 1786.00000 14954.00000
9.28 26.00000 1.52533 1682.00000 14902.00000
9.30 34.00000 1.52533 1652.00000 14876.00000
9.32 32.00000 1.52533 1628.00000 14434.00000
9.34 28.00000 1.52533 1578.00000 14204.00000
9.36 22.00000 1.52533 1514.00000 14234.00000
9.38 26.00000 1.52533 1492.00000 14354.00000
9.40 42.00000 1.52533 1552.00000 14426.00000
9.42 40.00000 1.52533 1602.00000 14452.00000
9.44 20.00000 1.52533 1584.00000 14460.00000
9.46 14.00000 1.52533 1484.00000 14626.00000
9.48 22.00000 1.52533 1432.00000 14798.00000
9.50 22.00000 1.52533 1516.00000 14698.00000
9.52 14.00000 1.52533 1486.00000 14414.00000
9.54 12.00000 1.52533 1468.00000 14346.00000
9.56 22.00000 1.52533 1394.00000 14464.00000
9.58 36.00000 1.52533 1504.00000 14668.00000
9.60 46.00000 1.52533 1572.00000 14618.00000
9.62 36.00000 1.52533 1572.00000 14524.00000
9.64 30.00000 1.52533 1578.00000 14556.00000
9.66 22.00000 1.52533 1632.00000 14474.00000
9.68 20.00000 1.52533 1616.00000 14516.00000
9.70 22.00000 1.51584 1604.00000 14742.00000
9.72 22.00000 1.51584 1636.00000 14790.00000
9.74 26.00000 1.51584 1700.00000 14916.00000
9.76 20.00000 1.52533 1690.00000 14820.00000
9.78 26.00000 1.52533 1660.00000 14848.00000
9.80 32.00000 1.52533 1644.00000 14928.00000
9.82 32.00000 1.52533 1646.00000 15006.00000
9.84 36.00000 1.52533 1648.00000 15086.00000
9.86 38.00000 1.52533 1608.00000 14900.00000
9.88 28.00000 1.52533 1646.00000 14938.00000
9.90 24.00000 1.52533 1644.00000 15018.00000
9.92 24.00000 1.52533 1638.00000 15218.00000
9.94 40.00000 1.52533 1602.00000 15380.00000
9.96 42.00000 1.52533 1642.00000 15328.00000
9.98 52.00000 1.52533 1602.00000 15232.00000
10.00 40.00000 1.53483 1552.00000 15130.00000
10.02 36.00000 1.53483 1502.00000 15454.00000
10.04 30.00000 1.52533 1458.00000 15576.00000
10.06 30.00000 1.52533 1568.00000 15688.00000
10.08 20.00000 1.52533 1686.00000 15478.00000
10.10 14.00000 1.52533 1686.00000 15460.00000
10.12 16.00000 1.52533 1668.00000 15512.00000
10.14 16.00000 1.52533 1634.00000 15654.00000
10.16 24.00000 1.52533 1638.00000 15396.00000
10.18 30.00000 1.52533 1708.00000 15284.00000
10.20 42.00000 1.52533 1696.00000 15124.00000
10.22 48.00000 1.52533 1764.00000 15030.00000
10.24 42.00000 1.52533 1734.00000 15024.00000
10.26 30.00000 1.52533 1754.00000 14926.00000
10.28 20.00000 1.52533 1698.00000 14654.00000
10.30 20.00000 1.52533 1628.00000 14540.00000
10.32 16.00000 1.52533 1666.00000 14678.00000
10.34 22.00000 1.52533 1724.00000 14576.00000
10.36 34.00000 1.52533 1754.00000 14702.00000
10.38 38.00000 1.52533 1694.00000 14824.00000
10.40 36.00000 1.52533 1632.00000 15010.00000
10.42 34.00000 1.52533 1548.00000 14678.00000
10.44 40.00000 1.52533 1564.00000 14556.00000
10.46 30.00000 1.52533 1566.00000 14408.00000
10.48 28.00000 1.52533 1636.00000 14676.00000
10.50 20.00000 1.52533 1680.00000 14880.00000
10.52 32.00000 1.52533 1716.00000 14904.00000
10.54 32.00000 1.52533 1602.00000 14802.00000
10.56 36.00000 1.52533 1542.00000 14672.00000
10.58 34.00000 1.52533 1668.00000 14580.00000
10.60 36.00000 1.53483 1666.00000 14868.00000
10.62 34.00000 1.54432 1668.00000 14722.00000
10.64 30.00000 1.54432 1658.00000 14982.00000
10.66 16.00000 1.53483 1686.00000 14938.00000
10.68 18.00000 1.52533 1730.00000 14950.00000
10.70 18.00000 1.52533 1702.00000 14964.00000
10.72 14.00000 1.52533 1724.00000 14916.00000
10.74 12.00000 1.52533 1674.00000 14902.00000
10.76 16.00000 1.52533 1718.00000 14992.00000
10.78 22.00000 1.52533 1672.00000 14964.00000
10.80 34.00000 1.52533 1752.00000 15054.00000
10.82 38.00000 1.52533 1704.00000 14980.00000
10.84 32.00000 1.52533 1726.00000 15100.00000
