~Version
VERS. 2.0
WRAP. NO
~Well
STRT.M 0.82
STOP.M 59.52
STEP.M 0.02
NULL. -999.0
WELL. SYNTH_A
DATE. 2025-12-31
~Curve
DEPT.M
GR.CPS
CL.IN
LD.CPS
SD.CPS
~A
# ...
14.34 48.00000 2.26584 1826.00000 15012.00000
14.36 54.00000 2.24685 1846.00000 15058.00000
14.38 52.00000 2.25634 1828.00000 14956.00000
14.40 24.00000 2.25634 1738.00000 14946.00000
14.42 16.00000 2.26584 1734.00000 14976.00000
14.44 28.00000 2.26584 1660.00000 15116.00000
14.46 26.00000 2.24685 1666.00000 15056.00000
14.48 52.00000 2.24685 1676.00000 14992.00000
14.50 46.00000 2.24685 1662.00000 14850.00000
14.52 50.00000 2.24685 1672.00000 15066.00000
14.54 44.00000 2.25634 1720.00000 15106.00000
14.56 52.00000 2.26584 1730.00000 15304.00000
14.58 50.00000 2.27533 1744.00000 15106.00000
14.60 42.00000 2.24685 1732.00000 14942.00000
14.62 42.00000 2.24685 1748.00000 14940.00000
14.64 50.00000 2.26584 1780.00000 15054.00000
14.66 44.00000 2.27533 1824.00000 15144.00000
14.68 32.00000 2.25634 1896.00000 15372.00000
14.70 38.00000 2.26584 1850.00000 15380.00000
14.72 46.00000 2.25634 1758.00000 15522.00000
14.74 40.00000 2.26584 1716.00000 15146.00000
14.76 28.00000 2.26584 1786.00000 14980.00000
14.78 30.00000 2.24685 1826.00000 14954.00000
14.80 28.00000 2.25634 1774.00000 15106.00000
14.82 34.00000 2.25634 1758.00000 15062.00000
14.84 30.00000 2.26584 1724.00000 15122.00000
14.86 30.00000 2.26584 1700.00000 14806.00000
14.88 36.00000 2.25634 1676.00000 14854.00000
14.90 40.00000 2.26584 1676.00000 14858.00000
14.92 34.00000 2.26584 1700.00000 14932.00000
14.94 28.00000 2.25634 1744.00000 14962.00000
14.96 32.00000 2.25634 1736.00000 14918.00000
14.98 42.00000 2.24685 1754.00000 14844.00000
15.00 46.00000 2.26584 1714.00000 14678.00000
15.02 46.00000 2.25634 1756.00000 14816.00000
15.04 36.00000 2.27533 1720.00000 14972.00000
15.06 30.00000 2.26584 1768.00000 14908.00000
15.08 22.00000 2.26584 1704.00000 14760.00000
15.10 24.00000 2.26584 1686.00000 14810.00000
15.12 24.00000 2.25634 1698.00000 14982.00000
15.14 32.00000 2.26584 1760.00000 15200.00000
15.16 40.00000 2.26584 1760.00000 15342.00000
15.18 40.00000 2.26584 1726.00000 15266.00000
15.20 34.00000 2.23735 1712.00000 15164.00000
15.22 30.00000 2.24685 1744.00000 15214.00000
15.24 38.00000 2.27533 1764.00000 15062.00000
15.26 48.00000 2.26584 1692.00000 15226.00000
15.28 44.00000 2.26584 1650.00000 15256.00000
15.30 38.00000 2.26584 1690.00000 15158.00000
15.32 32.00000 2.27533 1716.00000 14746.00000
15.34 30.00000 2.24685 1688.00000 14776.00000
15.36 26.00000 2.23735 1688.00000 14740.00000
15.38 44.00000 2.23735 1638.00000 14758.00000
15.40 50.00000 2.26584 1678.00000 14822.00000
15.42 44.00000 2.28482 1676.00000 14960.00000
15.44 22.00000 2.27533 1708.00000 15118.00000
15.46 26.00000 2.25634 1656.00000 14868.00000
15.48 30.00000 2.24685 1698.00000 14978.00000
15.50 34.00000 2.26584 1790.00000 14876.00000
15.52 30.00000 2.26584 1818.00000 14942.00000
15.54 44.00000 2.26584 1776.00000 14974.00000
15.56 42.00000 2.26584 1690.00000 15154.00000
15.58 48.00000 2.26584 1692.00000 15176.00000
15.60 36.00000 2.26584 1684.00000 15086.00000
15.62 32.00000 2.25634 1726.00000 15106.00000
15.64 34.00000 2.25634 1770.00000 15108.00000
15.66 42.00000 2.25634 1732.00000 15302.00000
15.68 34.00000 2.25634 1694.00000 15268.00000
15.70 34.00000 2.26584 1616.00000 14990.00000
15.72 32.00000 2.25634 1638.00000 14830.00000
15.74 30.00000 2.25634 1758.00000 14920.00000
15.76 32.00000 2.25634 1822.00000 14838.00000
15.78 38.00000 2.24685 1804.00000 14990.00000
15.80 34.00000 2.24685 1698.00000 14706.00000
15.82 38.00000 2.25634 1692.00000 14870.00000
15.84 24.00000 2.27533 1532.00000 14808.00000
15.86 22.00000 2.25634 1446.00000 14984.00000
15.88 26.00000 2.25634 1402.00000 14970.00000
15.90 32.00000 2.26584 1342.00000 14630.00000
15.92 24.00000 2.27533 1242.00000 14490.00000
15.94 36.00000 2.27533 1174.00000 13722.00000
15.96 32.00000 2.27533 1176.00000 13124.00000
15.98 34.00000 2.27533 1190.00000 12568.00000
16.00 22.00000 2.25634 1186.00000 12402.00000
16.02 18.00000 2.26584 1110.00000 12126.00000
16.04 30.00000 2.25634 1018.00000 12036.00000
16.06 36.00000 2.26584 980.00000 12000.00000
16.08 42.00000 2.25634 980.00000 12140.00000
16.10 26.00000 2.27533 1002.00000 12162.00000
16.12 26.00000 2.25634 1012.00000 12324.00000
16.14 24.00000 2.25634 1080.00000 12432.00000
16.16 16.00000 2.25634 1102.00000 12682.00000
16.18 16.00000 2.26584 1140.00000 13050.00000
16.20 20.00000 2.26584 1104.00000 13304.00000
16.22 34.00000 2.26584 1172.00000 13854.00000
16.24 36.00000 2.25634 1342.00000 14382.00000
16.26 52.00000 2.26584 1470.00000 15042.00000
16.28 38.00000 2.25634 1536.00000 15252.00000
16.30 36.00000 2.25634 1562.00000 15272.00000
16.32 30.00000 2.23735 1642.00000 15146.00000
16.34 44.00000 2.23735 1748.00000 15064.00000
16.36 46.00000 2.23735 1772.00000 15094.00000
16.38 58.00000 2.23735 1782.00000 15632.00000
16.40 42.00000 2.25634 1824.00000 15682.00000
16.42 30.00000 2.27533 1828.00000 15566.00000
16.44 36.00000 2.28482 1836.00000 15236.00000
16.46 46.00000 2.28482 1856.00000 15396.00000
16.48 52.00000 2.28482 1838.00000 15488.00000
16.50 52.00000 2.28482 1836.00000 15182.00000
16.52 42.00000 2.28482 1808.00000 15142.00000
16.54 38.00000 2.28482 1770.00000 15336.00000
16.56 28.00000 2.28482 1830.00000 15556.00000
16.58 30.00000 2.28482 1876.00000 15494.00000
16.60 30.00000 2.28482 1912.00000 15704.00000
16.62 36.00000 2.28482 1920.00000 15628.00000
16.64 54.00000 2.28482 1970.00000 15718.00000
16.66 50.00000 2.28482 1970.00000 15628.00000
16.68 54.00000 2.28482 1928.00000 15524.00000
16.70 46.00000 2.28482 1902.00000 15514.00000
16.72 32.00000 2.28482 1878.00000 15404.00000
16.74 40.00000 2.28482 1856.00000 15618.00000
16.76 40.00000 2.28482 1936.00000 15788.00000
16.78 66.00000 2.28482 1910.00000 15796.00000
16.80 66.00000 2.28482 1954.00000 15732.00000
16.82 66.00000 2.28482 1914.00000 15642.00000
16.84 56.00000 2.28482 1826.00000 15754.00000
16.86 54.00000 2.28482 1840.00000 15724.00000
16.88 56.00000 2.28482 1840.00000 15528.00000
16.90 58.00000 2.28482 1922.00000 15624.00000
16.92 52.00000 2.28482 1900.00000 15630.00000
16.94 34.00000 2.28482 1908.00000 15518.00000
16.96 34.00000 2.28482 1846.00000 15650.00000
16.98 36.00000 2.28482 1840.00000 15468.00000
17.00 36.00000 2.28482 1888.00000 15464.00000
17.02 22.00000 2.28482 1888.00000 15480.00000
17.04 32.00000 2.27533 1878.00000 15524.00000
17.06 32.00000 2.27533 1860.00000 15566.00000
17.08 36.00000 2.28482 1888.00000 15494.00000
17.10 42.00000 2.28482 1910.00000 15460.00000
17.12 42.00000 2.28482 1912.00000 15242.00000
17.14 40.00000 2.28482 1898.00000 15636.00000
17.16 54.00000 2.28482 1898.00000 15580.00000
17.18 50.00000 2.28482 1890.00000 15514.00000
17.20 50.00000 2.28482 1896.00000 15306.00000
17.22 32.00000 2.28482 1992.00000 15386.00000
17.24 32.00000 2.28482 1990.00000 15448.00000
17.26 38.00000 2.26584 1934.00000 15410.00000
17.28 42.00000 2.26584 1856.00000 15432.00000
17.30 50.00000 2.26584 1790.00000 15416.00000
17.32 30.00000 2.28482 1842.00000 15420.00000
17.34 16.00000 2.28482 1862.00000 15468.00000
17.36 18.00000 2.26584 1890.00000 15430.00000
17.38 30.00000 2.24685 1892.00000 15340.00000
17.40 50.00000 2.24685 2004.00000 15408.00000
17.42 46.00000 2.26584 1952.00000 15470.00000
17.44 54.00000 2.27533 1964.00000 15560.00000
17.46 56.00000 2.24685 1920.00000 15422.00000
17.48 58.00000 2.23735 2012.00000 15382.00000
17.50 46.00000 2.22786 1946.00000 15298.00000
17.52 32.00000 2.23735 1944.00000 15488.00000
17.54 50.00000 2.22786 1938.00000 15502.00000
17.56 52.00000 2.23735 1998.00000 15740.00000
17.58 56.00000 2.24685 1984.00000 15786.00000
17.60 42.00000 2.25634 1904.00000 15674.00000
17.62 28.00000 2.23735 1888.00000 15522.00000
17.64 28.00000 2.22786 1950.00000 15502.00000
17.66 34.00000 2.24685 1960.00000 15148.00000
17.68 36.00000 2.24685 1954.00000 15174.00000
17.70 44.00000 2.25634 1932.00000 15438.00000
17.72 46.00000 2.24685 1882.00000 15710.00000
17.74 44.00000 2.27533 1846.00000 15772.00000
17.76 42.00000 2.27533 1794.00000 15584.00000
17.78 48.00000 2.27533 1752.00000 15392.00000
17.80 48.00000 2.25634 1806.00000 15518.00000
