~Version
VERS. 2.0
WRAP. NO
~Well
STRT.M 0.27
STOP.M 59.83
STEP.M 0.02
NULL. -999.0
WELL. SYNTH_B
DATE. 2025-12-31
~Curve
DEPT.M
GR.CPS
CL.IN
LD.CPS
SD.CPS
~A
# ...
42.20 30.00000 1.28799 1516.00000 14810.00000
42.22 28.00000 1.27850 1582.00000 14990.00000
42.24 28.00000 1.27850 1610.00000 14832.00000
42.26 34.00000 1.26900 1642.00000 14824.00000
42.28 34.00000 1.27850 1614.00000 14662.00000
42.30 28.00000 1.27850 1650.00000 14720.00000
42.32 24.00000 1.28799 1632.00000 14728.00000
42.34 24.00000 1.27850 1556.00000 14548.00000
42.36 28.00000 1.27850 1510.00000 14410.00000
42.38 30.00000 1.28799 1488.00000 14296.00000
42.40 24.00000 1.27850 1518.00000 14568.00000
42.42 24.00000 1.26900 1516.00000 14462.00000
42.44 26.00000 1.26900 1542.00000 14262.00000
42.46 26.00000 1.27850 1536.00000 13706.00000
42.48 26.00000 1.27850 1520.00000 13712.00000
42.50 18.00000 1.26900 1458.00000 13806.00000
42.52 16.00000 1.26900 1456.00000 14086.00000
42.54 32.00000 1.26900 1430.00000 14298.00000
42.56 34.00000 1.27850 1430.00000 14426.00000
42.58 38.00000 1.29748 1460.00000 14348.00000
42.60 20.00000 1.28799 1484.00000 14498.00000
42.62 22.00000 1.28799 1494.00000 14534.00000
42.64 22.00000 1.27850 1434.00000 14736.00000
42.66 26.00000 1.28799 1458.00000 14440.00000
42.68 24.00000 1.27850 1460.00000 14488.00000
42.70 28.00000 1.27850 1398.00000 14680.00000
42.72 34.00000 1.26900 1408.00000 14736.00000
42.74 32.00000 1.27850 1344.00000 14570.00000
42.76 38.00000 1.27850 1390.00000 14364.00000
42.78 24.00000 1.28799 1434.00000 14476.00000
42.80 22.00000 1.27850 1476.00000 14610.00000
42.82 24.00000 1.25951 1502.00000 14676.00000
42.84 26.00000 1.25002 1474.00000 14478.00000
42.86 26.00000 1.25951 1466.00000 14456.00000
42.88 18.00000 1.27850 1506.00000 14400.00000
42.90 12.00000 1.28799 1376.00000 14134.00000
42.92 16.00000 1.28799 1394.00000 13966.00000
42.94 12.00000 1.27850 1402.00000 13946.00000
42.96 18.00000 1.27850 1434.00000 14104.00000
42.98 14.00000 1.26900 1504.00000 14388.00000
43.00 20.00000 1.27850 1544.00000 14582.00000
43.02 18.00000 1.27850 1370.00000 14522.00000
43.04 22.00000 1.27850 1320.00000 14518.00000
43.06 22.00000 1.27850 1328.00000 14490.00000
43.08 20.00000 1.27850 1376.00000 14666.00000
43.10 14.00000 1.27850 1268.00000 14534.00000
43.12 10.00000 1.26900 1194.00000 14236.00000
43.14 6.00000 1.25951 1092.00000 13748.00000
43.16 14.00000 1.25951 1156.00000 13346.00000
43.18 20.00000 1.26900 1168.00000 13132.00000
43.20 18.00000 1.27850 1244.00000 12858.00000
43.22 16.00000 1.27850 1184.00000 12542.00000
43.24 14.00000 1.26900 1106.00000 12408.00000
43.26 18.00000 1.26900 1028.00000 12638.00000
43.28 16.00000 1.27850 1002.00000 12934.00000
43.30 26.00000 1.27850 1054.00000 13508.00000
43.32 24.00000 1.27850 1072.00000 13804.00000
43.34 30.00000 1.25951 1118.00000 13944.00000
43.36 20.00000 1.25951 1196.00000 13810.00000
43.38 18.00000 1.25951 1226.00000 13792.00000
43.40 20.00000 1.25951 1262.00000 14000.00000
43.42 28.00000 1.25951 1268.00000 14378.00000
43.44 32.00000 1.26900 1324.00000 14664.00000
43.46 30.00000 1.27850 1282.00000 14630.00000
43.48 24.00000 1.27850 1300.00000 14726.00000
43.50 26.00000 1.26900 1268.00000 14630.00000
43.52 14.00000 1.25951 1284.00000 14588.00000
43.54 16.00000 1.26900 1234.00000 14258.00000
43.56 12.00000 1.27850 1288.00000 13894.00000
43.58 18.00000 1.27850 1358.00000 13604.00000
43.60 18.00000 1.26900 1324.00000 13538.00000
43.62 34.00000 1.25002 1294.00000 13708.00000
43.64 28.00000 1.25002 1222.00000 14056.00000
43.66 28.00000 1.25002 1212.00000 14326.00000
43.68 24.00000 1.25951 1198.00000 14418.00000
43.70 24.00000 1.26900 1244.00000 14500.00000
43.72 30.00000 1.26900 1342.00000 14416.00000
43.74 32.00000 1.26900 1340.00000 14472.00000
43.76 34.00000 1.26900 1422.00000 14394.00000
43.78 30.00000 1.26900 1432.00000 14550.00000
43.80 32.00000 1.25951 1474.00000 14384.00000
43.82 30.00000 1.26900 1434.00000 14394.00000
43.84 32.00000 1.26900 1430.00000 14458.00000
43.86 30.00000 1.26900 1374.00000 14458.00000
43.88 42.00000 1.26900 1418.00000 14294.00000
43.90 48.00000 1.26900 1406.00000 14334.00000
43.92 44.00000 1.27850 1382.00000 14390.00000
43.94 44.00000 1.27850 1336.00000 14426.00000
43.96 34.00000 1.27850 1342.00000 14204.00000
43.98 42.00000 1.26900 1376.00000 14270.00000
44.00 48.00000 1.26900 1372.00000 14088.00000
44.02 54.00000 1.26900 1404.00000 14284.00000
44.04 46.00000 1.26900 1366.00000 14336.00000
44.06 36.00000 1.26900 1400.00000 14512.00000
44.08 28.00000 1.27850 1330.00000 14444.00000
44.10 28.00000 1.26900 1348.00000 14194.00000
44.12 32.00000 1.25002 1394.00000 13988.00000
44.14 36.00000 1.25002 1414.00000 14058.00000
44.16 38.00000 1.25951 1394.00000 14050.00000
44.18 30.00000 1.26900 1288.00000 14030.00000
44.20 34.00000 1.27850 1296.00000 14228.00000
44.22 36.00000 1.26900 1360.00000 14176.00000
44.24 44.00000 1.25951 1386.00000 14286.00000
44.26 40.00000 1.25002 1404.00000 14098.00000
44.28 46.00000 1.24052 1394.00000 14050.00000
44.30 38.00000 1.25002 1472.00000 14060.00000
44.32 36.00000 1.26900 1450.00000 13928.00000
44.34 36.00000 1.25951 1412.00000 14072.00000
44.36 28.00000 1.26900 1364.00000 14110.00000
44.38 34.00000 1.27850 1396.00000 14446.00000
44.40 32.00000 1.26900 1360.00000 14374.00000
44.42 44.00000 1.25951 1356.00000 14296.00000
44.44 36.00000 1.26900 1402.00000 14396.00000
44.46 30.00000 1.26900 1398.00000 14442.00000
44.48 30.00000 1.25951 1394.00000 14418.00000
44.50 36.00000 1.25951 1362.00000 14508.00000
44.52 30.00000 1.25951 1420.00000 14504.00000
44.54 32.00000 1.25951 1400.00000 14448.00000
44.56 38.00000 1.25951 1382.00000 14468.00000
44.58 40.00000 1.25951 1378.00000 14630.00000
44.60 36.00000 1.25951 1424.00000 14550.00000
44.62 36.00000 1.25951 1424.00000 14528.00000
44.64 56.00000 1.25951 1338.00000 14408.00000
44.66 48.00000 1.26900 1374.00000 14142.00000
44.68 56.00000 1.26900 1418.00000 14170.00000
44.70 40.00000 1.27850 1374.00000 14202.00000
44.72 20.00000 1.26900 1454.00000 14304.00000
44.74 20.00000 1.26900 1412.00000 14178.00000
44.76 28.00000 1.26900 1490.00000 14152.00000
44.78 34.00000 1.26900 1514.00000 14070.00000
44.80 36.00000 1.25951 1506.00000 14118.00000
44.82 36.00000 1.25951 1454.00000 14240.00000
44.84 36.00000 1.25002 1410.00000 14392.00000
44.86 40.00000 1.25002 1416.00000 14418.00000
44.88 30.00000 1.26900 1414.00000 14240.00000
44.90 22.00000 1.26900 1428.00000 14116.00000
44.92 20.00000 1.25951 1412.00000 14022.00000
44.94 14.00000 1.25002 1348.00000 13876.00000
44.96 12.00000 1.26900 1226.00000 14022.00000
44.98 18.00000 1.28799 1342.00000 14124.00000
45.00 26.00000 1.28799 1344.00000 13940.00000
45.02 38.00000 1.28799 1402.00000 13768.00000
45.04 44.00000 1.28799 1414.00000 13672.00000
45.06 42.00000 1.27850 1428.00000 14004.00000
45.08 44.00000 1.27850 1394.00000 13984.00000
45.10 40.00000 1.26900 1320.00000 14026.00000
45.12 48.00000 1.26900 1288.00000 13868.00000
45.14 44.00000 1.25951 1294.00000 13890.00000
45.16 38.00000 1.26900 1306.00000 13910.00000
45.18 34.00000 1.27850 1284.00000 13986.00000
45.20 28.00000 1.28799 1258.00000 13770.00000
45.22 24.00000 1.28799 1272.00000 13590.00000
45.24 40.00000 1.27850 1270.00000 13550.00000
45.26 48.00000 1.26900 1220.00000 13606.00000
45.28 48.00000 1.26900 1244.00000 13774.00000
45.30 44.00000 1.26900 1322.00000 13838.00000
45.32 50.00000 1.27850 1332.00000 13968.00000
45.34 38.00000 1.27850 1378.00000 14072.00000
45.36 24.00000 1.26900 1292.00000 14034.00000
45.38 36.00000 1.25951 1314.00000 14152.00000
45.40 56.00000 1.25951 1342.00000 14206.00000
45.42 54.00000 1.25951 1330.00000 14282.00000
45.44 52.00000 1.26900 1300.00000 14382.00000
45.46 42.00000 1.25951 1314.00000 14522.00000
45.48 34.00000 1.25951 1336.00000 14652.00000
45.50 18.00000 1.25002 1382.00000 14826.00000
45.52 20.00000 1.25951 1392.00000 14884.00000
45.54 24.00000 1.26900 1492.00000 14892.00000
45.56 28.00000 1.26900 1538.00000 14792.00000
45.58 34.00000 1.26900 1596.00000 14912.00000
45.60 38.00000 1.25951 1530.00000 15150.00000
45.62 44.00000 1.25002 1520.00000 15196.00000
45.64 44.00000 1.24052 1600.00000 15160.00000
45.66 36.00000 1.24052 1642.00000 14726.00000
