~Version
VERS. 2.0
WRAP. NO
~Well
STRT.M 0.27
STOP.M 59.83
STEP.M 0.02
NULL. -999.0
WELL. SYNTH_B
DATE. 2025-12-31
~Curve
DEPT.M
GR.CPS
CL.IN
LD.CPS
SD.CPS
~A
# ...
35.24 34.00000 1.28799 1594.00000 15176.00000
35.26 36.00000 1.29748 1544.00000 15220.00000
35.28 40.00000 1.29748 1518.00000 15080.00000
35.30 40.00000 1.29748 1568.00000 15000.00000
35.32 32.00000 1.29748 1542.00000 14874.00000
35.34 34.00000 1.28799 1536.00000 14466.00000
35.36 38.00000 1.29748 1480.00000 14532.00000
35.38 44.00000 1.29748 1470.00000 14220.00000
35.40 46.00000 1.29748 1442.00000 14328.00000
35.42 46.00000 1.28799 1458.00000 14294.00000
35.44 50.00000 1.28799 1446.00000 14166.00000
35.46 52.00000 1.28799 1462.00000 14062.00000
35.48 48.00000 1.29748 1500.00000 14200.00000
35.50 44.00000 1.28799 1534.00000 14548.00000
35.52 38.00000 1.29748 1578.00000 14744.00000
35.54 38.00000 1.28799 1516.00000 14710.00000
35.56 34.00000 1.29748 1432.00000 14754.00000
35.58 34.00000 1.28799 1410.00000 14754.00000
35.60 26.00000 1.28799 1478.00000 14614.00000
35.62 38.00000 1.28799 1562.00000 14694.00000
35.64 30.00000 1.28799 1632.00000 14948.00000
35.66 28.00000 1.29748 1586.00000 14952.00000
35.68 32.00000 1.29748 1678.00000 14824.00000
35.70 32.00000 1.29748 1676.00000 14568.00000
35.72 38.00000 1.28799 1750.00000 14666.00000
35.74 28.00000 1.29748 1634.00000 14722.00000
35.76 24.00000 1.28799 1564.00000 14530.00000
35.78 22.00000 1.28799 1534.00000 14526.00000
35.80 16.00000 1.27850 1582.00000 14574.00000
35.82 12.00000 1.28799 1636.00000 14530.00000
35.84 22.00000 1.29748 1704.00000 14920.00000
35.86 40.00000 1.30698 1652.00000 14958.00000
35.88 44.00000 1.30698 1696.00000 15046.00000
35.90 46.00000 1.30698 1598.00000 14638.00000
35.92 30.00000 1.28799 1562.00000 14670.00000
35.94 26.00000 1.28799 1574.00000 14892.00000
35.96 24.00000 1.28799 1590.00000 14668.00000
35.98 38.00000 1.29748 1588.00000 14760.00000
36.00 38.00000 1.29748 1598.00000 14670.00000
36.02 34.00000 1.28799 1650.00000 14718.00000
36.04 34.00000 1.29748 1656.00000 14796.00000
36.06 28.00000 1.29748 1614.00000 14814.00000
36.08 32.00000 1.29748 1562.00000 14838.00000
36.10 18.00000 1.29748 1528.00000 14790.00000
36.12 26.00000 1.29748 1562.00000 14834.00000
36.14 24.00000 1.28799 1518.00000 14662.00000
36.16 26.00000 1.27850 1500.00000 14426.00000
36.18 22.00000 1.27850 1480.00000 14418.00000
36.20 36.00000 1.28799 1548.00000 14412.00000
36.22 36.00000 1.28799 1642.00000 14392.00000
36.24 44.00000 1.29748 1650.00000 14430.00000
36.26 42.00000 1.29748 1622.00000 14266.00000
36.28 38.00000 1.29748 1604.00000 14330.00000
36.30 28.00000 1.28799 1576.00000 14258.00000
36.32 30.00000 1.28799 1568.00000 14292.00000
36.34 30.00000 1.28799 1520.00000 14458.00000
36.36 36.00000 1.29748 1592.00000 14736.00000
36.38 36.00000 1.29748 1568.00000 14694.00000
36.40 42.00000 1.29748 1620.00000 14730.00000
36.42 42.00000 1.28799 1610.00000 14532.00000
36.44 30.00000 1.29748 1600.00000 14584.00000
36.46 22.00000 1.30698 1574.00000 14780.00000
36.48 20.00000 1.29748 1522.00000 14764.00000
36.50 34.00000 1.30698 1494.00000 14780.00000
36.52 38.00000 1.29748 1482.00000 14556.00000
36.54 42.00000 1.29748 1586.00000 14506.00000
36.56 34.00000 1.28799 1592.00000 14542.00000
36.58 36.00000 1.28799 1544.00000 14638.00000
36.60 30.00000 1.28799 1540.00000 14600.00000
36.62 32.00000 1.28799 1568.00000 14598.00000
36.64 24.00000 1.28799 1592.00000 14636.00000
36.66 28.00000 1.28799 1572.00000 14550.00000
36.68 34.00000 1.28799 1550.00000 14462.00000
36.70 24.00000 1.28799 1538.00000 14394.00000
36.72 26.00000 1.28799 1540.00000 14556.00000
36.74 24.00000 1.27850 1578.00000 14392.00000
36.76 32.00000 1.27850 1606.00000 14372.00000
36.78 32.00000 1.27850 1588.00000 14496.00000
36.80 26.00000 1.28799 1564.00000 14538.00000
36.82 22.00000 1.28799 1506.00000 14612.00000
36.84 22.00000 1.28799 1558.00000 14756.00000
36.86 26.00000 1.28799 1606.00000 14760.00000
36.88 20.00000 1.28799 1620.00000 14742.00000
36.90 18.00000 1.28799 1580.00000 14782.00000
36.92 28.00000 1.28799 1658.00000 14768.00000
36.94 26.00000 1.28799 1616.00000 14754.00000
36.96 32.00000 1.28799 1616.00000 14654.00000
36.98 20.00000 1.28799 1568.00000 14708.00000
37.00 16.00000 1.28799 1586.00000 14616.00000
37.02 20.00000 1.28799 1516.00000 14590.00000
37.04 22.00000 1.28799 1562.00000 14586.00000
37.06 22.00000 1.28799 1510.00000 14998.00000
37.08 24.00000 1.27850 1558.00000 15220.00000
37.10 28.00000 1.27850 1608.00000 15068.00000
37.12 34.00000 1.27850 1636.00000 14888.00000
37.14 28.00000 1.27850 1700.00000 14820.00000
37.16 28.00000 1.27850 1818.00000 14942.00000
37.18 28.00000 1.27850 1772.00000 14878.00000
37.20 24.00000 1.27850 1690.00000 14658.00000
37.22 18.00000 1.27850 1756.00000 14818.00000
37.24 26.00000 1.27850 1756.00000 14966.00000
37.26 34.00000 1.28799 1730.00000 15158.00000
37.28 34.00000 1.28799 1658.00000 15042.00000
37.30 42.00000 1.28799 1622.00000 14946.00000
37.32 48.00000 1.28799 1652.00000 15068.00000
37.34 52.00000 1.28799 1634.00000 14990.00000
37.36 30.00000 1.28799 1670.00000 14986.00000
37.38 24.00000 1.28799 1716.00000 14882.00000
37.40 40.00000 1.28799 1656.00000 14928.00000
37.42 34.00000 1.28799 1664.00000 15090.00000
37.44 28.00000 1.28799 1598.00000 14998.00000
37.46 20.00000 1.28799 1604.00000 14860.00000
37.48 24.00000 1.27850 1564.00000 14700.00000
37.50 24.00000 1.27850 1572.00000 14836.00000
37.52 30.00000 1.27850 1608.00000 14818.00000
37.54 26.00000 1.28799 1594.00000 14822.00000
37.56 28.00000 1.28799 1604.00000 14790.00000
37.58 36.00000 1.28799 1626.00000 14736.00000
37.60 40.00000 1.28799 1626.00000 14722.00000
37.62 34.00000 1.27850 1650.00000 14556.00000
37.64 26.00000 1.27850 1672.00000 14618.00000
37.66 26.00000 1.26900 1644.00000 14544.00000
37.68 26.00000 1.27850 1584.00000 14622.00000
37.70 28.00000 1.27850 1494.00000 14826.00000
37.72 22.00000 1.27850 1470.00000 14778.00000
37.74 26.00000 1.27850 1526.00000 14790.00000
37.76 24.00000 1.28799 1584.00000 14680.00000
37.78 18.00000 1.28799 1590.00000 14696.00000
37.80 20.00000 1.27850 1620.00000 14688.00000
37.82 18.00000 1.27850 1642.00000 14686.00000
37.84 20.00000 1.26900 1640.00000 14596.00000
37.86 18.00000 1.26900 1614.00000 14708.00000
37.88 22.00000 1.27850 1614.00000 14622.00000
37.90 28.00000 1.28799 1642.00000 14696.00000
37.92 52.00000 1.28799 1622.00000 14648.00000
37.94 68.00000 1.27850 1584.00000 14730.00000
37.96 46.00000 1.27850 1532.00000 14732.00000
37.98 36.00000 1.28799 1578.00000 14652.00000
38.00 22.00000 1.28799 1618.00000 14660.00000
38.02 26.00000 1.28799 1570.00000 14508.00000
38.04 28.00000 1.27850 1554.00000 14680.00000
38.06 28.00000 1.27850 1604.00000 14528.00000
38.08 34.00000 1.28799 1622.00000 14790.00000
38.10 36.00000 1.27850 1580.00000 14658.00000
38.12 30.00000 1.27850 1624.00000 14602.00000
38.14 26.00000 1.27850 1634.00000 14470.00000
38.16 30.00000 1.28799 1702.00000 14588.00000
38.18 26.00000 1.27850 1624.00000 14470.00000
38.20 24.00000 1.27850 1626.00000 14532.00000
38.22 32.00000 1.26900 1620.00000 14644.00000
38.24 36.00000 1.27850 1638.00000 14598.00000
38.26 36.00000 1.26900 1678.00000 14666.00000
38.28 36.00000 1.27850 1656.00000 14902.00000
38.30 28.00000 1.27850 1642.00000 14892.00000
38.32 26.00000 1.28799 1614.00000 14814.00000
38.34 20.00000 1.28799 1556.00000 14644.00000
38.36 26.00000 1.27850 1560.00000 14658.00000
38.38 26.00000 1.26900 1610.00000 14630.00000
38.40 30.00000 1.26900 1714.00000 14818.00000
38.42 28.00000 1.27850 1816.00000 14854.00000
38.44 24.00000 1.26900 1796.00000 14752.00000
38.46 26.00000 1.27850 1788.00000 14896.00000
38.48 34.00000 1.26900 1624.00000 14904.00000
38.50 38.00000 1.27850 1672.00000 14894.00000
38.52 36.00000 1.26900 1572.00000 14844.00000
38.54 32.00000 1.26900 1550.00000 15008.00000
38.56 22.00000 1.26900 1528.00000 14906.00000
38.58 24.00000 1.26900 1616.00000 14828.00000
38.60 26.00000 1.27850 1656.00000 14638.00000
38.62 28.00000 1.27850 1686.00000 14738.00000
38.64 26.00000 1.27850 1718.00000 14894.00000
38.66 24.00000 1.26900 1754.00000 14876.00000
38.68 22.00000 1.27850 1756.00000 14778.00000
38.70 26.00000 1.28799 1710.00000 14924.00000
