~Version
VERS. 2.0
WRAP. NO
~Well
STRT.M 0.82
STOP.M 59.52
STEP.M 0.02
NULL. -999.0
WELL. SYNTH_A
DATE. 2025-12-31
~Curve
DEPT.M
GR.CPS
CL.IN
LD.CPS
SD.CPS
~A
# ...
21.30 34.00000 2.25634 1702.00000 14992.00000
21.32 32.00000 2.24685 1696.00000 14926.00000
21.34 32.00000 2.24685 1646.00000 15182.00000
21.36 30.00000 2.24685 1678.00000 15044.00000
21.38 30.00000 2.23735 1784.00000 15408.00000
21.40 40.00000 2.23735 1830.00000 15472.00000
21.42 40.00000 2.23735 1824.00000 15540.00000
21.44 50.00000 2.22786 1750.00000 15480.00000
21.46 44.00000 2.22786 1728.00000 15578.00000
21.48 42.00000 2.22786 1822.00000 15588.00000
21.50 30.00000 2.23735 1768.00000 15580.00000
21.52 42.00000 2.23735 1850.00000 15458.00000
21.54 36.00000 2.22786 1844.00000 15478.00000
21.56 30.00000 2.22786 1814.00000 15480.00000
21.58 36.00000 2.21837 1722.00000 15646.00000
21.60 50.00000 2.21837 1692.00000 15334.00000
21.62 60.00000 2.21837 1670.00000 15382.00000
21.64 48.00000 2.22786 1696.00000 15388.00000
21.66 42.00000 2.21837 1740.00000 15398.00000
21.68 34.00000 2.21837 1760.00000 15200.00000
21.70 32.00000 2.21837 1748.00000 15232.00000
21.72 30.00000 2.21837 1694.00000 15414.00000
21.74 36.00000 2.21837 1648.00000 15208.00000
21.76 36.00000 2.21837 1684.00000 15106.00000
21.78 40.00000 2.21837 1658.00000 14870.00000
21.80 36.00000 2.22786 1648.00000 14808.00000
21.82 54.00000 2.21837 1694.00000 14992.00000
21.84 52.00000 2.21837 1794.00000 15344.00000
21.86 50.00000 2.20887 1848.00000 15594.00000
21.88 28.00000 2.21837 1818.00000 15508.00000
21.90 32.00000 2.21837 1876.00000 15604.00000
21.92 42.00000 2.21837 1844.00000 15564.00000
21.94 46.00000 2.22786 1866.00000 15540.00000
21.96 40.00000 2.21837 1860.00000 15444.00000
21.98 38.00000 2.20887 1896.00000 15720.00000
22.00 22.00000 2.18989 1844.00000 15626.00000
22.02 20.00000 2.20887 1906.00000 15740.00000
22.04 26.00000 2.20887 1980.00000 15714.00000
22.06 26.00000 2.21837 2018.00000 15882.00000
22.08 32.00000 2.20887 1882.00000 15764.00000
22.10 34.00000 2.21837 1802.00000 15844.00000
22.12 42.00000 2.20887 1770.00000 16026.00000
22.14 50.00000 2.21837 1814.00000 16186.00000
22.16 56.00000 2.20887 1808.00000 15970.00000
22.18 56.00000 2.20887 1778.00000 15586.00000
22.20 46.00000 2.21837 1812.00000 15632.00000
22.22 40.00000 2.20887 1836.00000 15408.00000
22.24 54.00000 2.20887 1784.00000 15312.00000
22.26 56.00000 2.19938 1778.00000 15508.00000
22.28 58.00000 2.21837 1732.00000 15510.00000
22.30 38.00000 2.20887 1768.00000 15450.00000
22.32 24.00000 2.20887 1638.00000 15256.00000
22.34 24.00000 2.20887 1652.00000 15050.00000
22.36 26.00000 2.21837 1592.00000 15110.00000
22.38 36.00000 2.22786 1536.00000 15218.00000
22.40 30.00000 2.23735 1588.00000 15204.00000
22.42 40.00000 2.22786 1606.00000 15188.00000
22.44 40.00000 2.22786 1678.00000 14804.00000
22.46 40.00000 2.21837 1664.00000 14350.00000
22.48 32.00000 2.22786 1702.00000 14272.00000
22.50 34.00000 2.22786 1704.00000 14494.00000
22.52 42.00000 2.22786 1810.00000 14890.00000
22.54 44.00000 2.21837 1904.00000 15272.00000
22.56 36.00000 2.22786 1904.00000 15518.00000
22.58 42.00000 2.20887 1850.00000 15906.00000
22.60 34.00000 2.19938 1862.00000 16224.00000
22.62 38.00000 2.19938 1922.00000 16576.00000
22.64 42.00000 2.20887 2010.00000 16532.00000
22.66 46.00000 2.21837 2138.00000 16042.00000
22.68 38.00000 2.21837 2164.00000 15824.00000
22.70 38.00000 2.22786 2232.00000 15708.00000
22.72 48.00000 2.22786 2242.00000 15816.00000
22.74 62.00000 2.22786 2226.00000 15870.00000
22.76 62.00000 2.22786 2188.00000 15792.00000
22.78 44.00000 2.22786 2160.00000 16078.00000
22.80 44.00000 2.20887 2234.00000 16492.00000
22.82 42.00000 2.20887 2218.00000 16612.00000
22.84 50.00000 2.22786 2226.00000 16272.00000
22.86 38.00000 2.22786 2210.00000 16048.00000
22.88 34.00000 2.21837 2232.00000 16028.00000
22.90 42.00000 2.19938 2260.00000 16168.00000
22.92 62.00000 2.20887 2304.00000 16008.00000
22.94 64.00000 2.22786 2370.00000 15818.00000
22.96 66.00000 2.22786 2438.00000 15958.00000
22.98 72.00000 2.22786 2450.00000 15806.00000
23.00 60.00000 2.21837 2360.00000 16062.00000
23.02 46.00000 2.20887 2306.00000 16196.00000
23.04 38.00000 2.18989 2246.00000 16232.00000
23.06 54.00000 2.19938 2322.00000 16112.00000
23.08 62.00000 2.19938 2334.00000 16028.00000
23.10 72.00000 2.19938 2414.00000 16172.00000
23.12 60.00000 2.18989 2302.00000 16200.00000
23.14 60.00000 2.18989 2220.00000 16176.00000
23.16 56.00000 2.18989 2150.00000 16110.00000
23.18 46.00000 2.18989 2196.00000 16066.00000
23.20 58.00000 2.18989 2254.00000 15946.00000
23.22 62.00000 2.18989 2304.00000 16086.00000
23.24 56.00000 2.18989 2176.00000 16046.00000
23.26 66.00000 2.18989 2144.00000 16108.00000
23.28 64.00000 2.18989 2048.00000 16032.00000
23.30 64.00000 2.18989 2048.00000 15962.00000
23.32 58.00000 2.18989 2118.00000 15886.00000
23.34 52.00000 2.19938 2156.00000 15716.00000
23.36 40.00000 2.19938 2200.00000 15878.00000
23.38 50.00000 2.19938 2124.00000 15658.00000
23.40 64.00000 2.19938 2104.00000 15800.00000
23.42 66.00000 2.21837 2130.00000 15646.00000
23.44 68.00000 2.23735 2128.00000 15498.00000
23.46 64.00000 2.23735 2166.00000 15616.00000
23.48 54.00000 2.23735 2126.00000 15534.00000
23.50 44.00000 2.22786 2158.00000 15502.00000
23.52 44.00000 2.21837 2050.00000 15460.00000
23.54 46.00000 2.21837 1998.00000 15630.00000
23.56 54.00000 2.22786 2010.00000 15790.00000
23.58 46.00000 2.22786 1894.00000 15924.00000
23.60 42.00000 2.22786 1858.00000 15914.00000
23.62 38.00000 2.22786 1740.00000 15810.00000
23.64 30.00000 2.22786 1716.00000 15632.00000
23.66 28.00000 2.22786 1716.00000 15342.00000
23.68 22.00000 2.22786 1546.00000 15082.00000
23.70 22.00000 2.22786 1504.00000 14872.00000
23.72 28.00000 2.22786 1500.00000 14294.00000
23.74 34.00000 2.21837 1576.00000 14278.00000
23.76 30.00000 2.21837 1618.00000 14556.00000
23.78 26.00000 2.21837 1562.00000 14474.00000
23.80 22.00000 2.22786 1592.00000 14576.00000
23.82 28.00000 2.22786 1590.00000 14576.00000
23.84 24.00000 2.22786 1630.00000 14630.00000
23.86 24.00000 2.21837 1646.00000 14604.00000
23.88 38.00000 2.22786 1706.00000 14808.00000
23.90 36.00000 2.21837 1668.00000 14850.00000
23.92 34.00000 2.21837 1636.00000 14902.00000
23.94 26.00000 2.22786 1558.00000 15078.00000
23.96 38.00000 2.21837 1538.00000 15036.00000
23.98 42.00000 2.21837 1608.00000 15016.00000
24.00 48.00000 2.21837 1652.00000 14878.00000
24.02 40.00000 2.21837 1706.00000 15106.00000
24.04 36.00000 2.21837 1588.00000 14956.00000
24.06 32.00000 2.21837 1538.00000 14950.00000
24.08 30.00000 2.21837 1606.00000 14766.00000
24.10 24.00000 2.21837 1654.00000 14834.00000
24.12 26.00000 2.22786 1628.00000 14664.00000
24.14 30.00000 2.21837 1564.00000 14538.00000
24.16 32.00000 2.22786 1500.00000 14400.00000
24.18 22.00000 2.21837 1532.00000 14186.00000
24.20 30.00000 2.21837 1496.00000 14160.00000
24.22 34.00000 2.20887 1568.00000 14100.00000
24.24 42.00000 2.22786 1570.00000 14460.00000
24.26 30.00000 2.21837 1536.00000 14600.00000
24.28 40.00000 2.21837 1494.00000 14434.00000
24.30 32.00000 2.21837 1488.00000 14480.00000
24.32 34.00000 2.21837 1484.00000 14476.00000
24.34 30.00000 2.22786 1498.00000 14572.00000
24.36 38.00000 2.21837 1492.00000 14548.00000
24.38 42.00000 2.22786 1526.00000 14470.00000
24.40 48.00000 2.21837 1558.00000 14508.00000
24.42 38.00000 2.21837 1516.00000 14544.00000
24.44 28.00000 2.22786 1614.00000 14632.00000
24.46 16.00000 2.22786 1608.00000 14602.00000
24.48 24.00000 2.22786 1614.00000 14644.00000
24.50 42.00000 2.22786 1522.00000 14790.00000
24.52 42.00000 2.21837 1434.00000 14678.00000
24.54 38.00000 2.21837 1438.00000 14520.00000
24.56 34.00000 2.22786 1512.00000 14300.00000
24.58 38.00000 2.21837 1536.00000 14232.00000
24.60 36.00000 2.21837 1568.00000 14364.00000
24.62 24.00000 2.20887 1580.00000 14394.00000
24.64 20.00000 2.21837 1554.00000 13946.00000
24.66 24.00000 2.22786 1438.00000 13950.00000
24.68 22.00000 2.22786 1366.00000 14086.00000
24.70 22.00000 2.22786 1386.00000 14476.00000
24.72 14.00000 2.23735 1342.00000 14528.00000
24.74 22.00000 2.22786 1432.00000 14358.00000
24.76 24.00000 2.22786 1378.00000 14358.00000
