~Version
VERS. 2.0
WRAP. NO
~Well
STRT.M 0.27
STOP.M 59.83
STEP.M 0.02
NULL. -999.0
WELL. SYNTH_B
DATE. 2025-12-31
~Curve
DEPT.M
GR.CPS
CL.IN
LD.CPS
SD.CPS
~A
# ...
24.78 42.00000 3.11077 1850.00000 15324.00000
24.80 42.00000 3.13925 1840.00000 15472.00000
24.82 52.00000 3.13925 1778.00000 15376.00000
24.84 56.00000 3.13925 1774.00000 15366.00000
24.86 50.00000 3.13925 1762.00000 15240.00000
24.88 40.00000 3.13925 1796.00000 15326.00000
24.90 40.00000 3.13925 1838.00000 15064.00000
24.92 38.00000 3.13925 1870.00000 15164.00000
24.94 40.00000 3.13925 1894.00000 15020.00000
24.96 40.00000 3.12976 1874.00000 14976.00000
24.98 46.00000 3.11077 1880.00000 15074.00000
25.00 46.00000 3.12026 1818.00000 15390.00000
25.02 68.00000 3.12976 1880.00000 15486.00000
25.04 54.00000 3.11077 1832.00000 15448.00000
25.06 64.00000 2.97786 1852.00000 15382.00000
25.08 58.00000 2.36077 1848.00000 15388.00000
25.10 70.00000 2.18989 1862.00000 15232.00000
25.12 56.00000 1.76267 1874.00000 15194.00000
25.14 38.00000 1.84812 1818.00000 15334.00000
25.16 24.00000 1.70571 1826.00000 15356.00000
25.18 18.00000 1.70571 1764.00000 15548.00000
25.20 20.00000 1.67723 1734.00000 15474.00000
25.22 26.00000 1.67723 1676.00000 15424.00000
25.24 36.00000 1.77217 1602.00000 15320.00000
25.26 44.00000 1.94305 1578.00000 15094.00000
25.28 44.00000 1.98103 1514.00000 14834.00000
25.30 42.00000 1.80065 1538.00000 14382.00000
25.32 38.00000 1.55381 1528.00000 13818.00000
25.34 42.00000 1.47786 1504.00000 13332.00000
25.36 36.00000 1.45888 1486.00000 12976.00000
25.38 24.00000 1.67723 1478.00000 12680.00000
25.40 28.00000 2.00001 1458.00000 12528.00000
25.42 28.00000 2.27533 1402.00000 12736.00000
25.44 34.00000 2.28482 1362.00000 13412.00000
25.46 26.00000 2.34178 1350.00000 13774.00000
25.48 30.00000 2.56014 1436.00000 14472.00000
25.50 38.00000 2.83545 1472.00000 15020.00000
25.52 46.00000 2.92090 1548.00000 15426.00000
25.54 46.00000 2.99685 1690.00000 15402.00000
25.56 42.00000 2.98735 1852.00000 15392.00000
25.58 52.00000 3.00634 1948.00000 15604.00000
25.60 68.00000 3.02533 2138.00000 15980.00000
25.62 62.00000 2.97786 2154.00000 16118.00000
25.64 58.00000 2.66457 2128.00000 16208.00000
25.66 52.00000 2.27533 2042.00000 16060.00000
25.68 68.00000 2.41773 1980.00000 16086.00000
25.70 54.00000 3.13925 2022.00000 15992.00000
25.72 60.00000 3.21520 1982.00000 16184.00000
25.74 40.00000 3.19621 1942.00000 16266.00000
25.76 44.00000 3.19621 1916.00000 16704.00000
25.78 42.00000 3.23419 1922.00000 16694.00000
25.80 38.00000 3.23419 1970.00000 16346.00000
25.82 38.00000 3.24368 1932.00000 16172.00000
25.84 44.00000 3.28166 1948.00000 16064.00000
25.86 42.00000 3.31963 1946.00000 15984.00000
25.88 40.00000 3.36710 1900.00000 15932.00000
25.90 38.00000 3.36710 1846.00000 15980.00000
25.92 38.00000 3.35760 1738.00000 16024.00000
25.94 36.00000 3.31963 1734.00000 16330.00000
25.96 38.00000 3.31014 1736.00000 16326.00000
25.98 42.00000 3.30064 1720.00000 16058.00000
26.00 50.00000 3.33862 1738.00000 15558.00000
26.02 48.00000 3.33862 1764.00000 15332.00000
26.04 36.00000 3.30064 1686.00000 15098.00000
26.06 26.00000 3.26267 1668.00000 14664.00000
26.08 34.00000 3.19621 1616.00000 14530.00000
26.10 42.00000 3.23419 1646.00000 14666.00000
26.12 62.00000 3.25317 1556.00000 14786.00000
26.14 62.00000 3.25317 1560.00000 14928.00000
26.16 62.00000 3.23419 1544.00000 14802.00000
26.18 44.00000 3.23419 1530.00000 14768.00000
26.20 34.00000 3.23419 1530.00000 14708.00000
26.22 36.00000 3.19621 1594.00000 14866.00000
26.24 48.00000 3.17723 1696.00000 14866.00000
26.26 46.00000 3.16773 1692.00000 14802.00000
26.28 58.00000 3.17723 1604.00000 14826.00000
26.30 54.00000 3.19621 1604.00000 14984.00000
26.32 58.00000 3.22469 1634.00000 15142.00000
26.34 54.00000 3.23419 1664.00000 15182.00000
26.36 54.00000 3.23419 1712.00000 15392.00000
26.38 52.00000 3.23419 1652.00000 15184.00000
26.40 48.00000 3.19621 1676.00000 14858.00000
26.42 44.00000 3.17723 1752.00000 14630.00000
26.44 42.00000 3.19621 1704.00000 14576.00000
26.46 42.00000 3.27216 1650.00000 14712.00000
26.48 40.00000 3.31014 1606.00000 14730.00000
26.50 36.00000 3.28166 1660.00000 14770.00000
26.52 34.00000 3.27216 1670.00000 14758.00000
26.54 32.00000 3.27216 1736.00000 14886.00000
26.56 40.00000 3.28166 1762.00000 14980.00000
26.58 40.00000 3.25317 1710.00000 15144.00000
26.60 42.00000 3.25317 1768.00000 15156.00000
26.62 30.00000 3.23419 1776.00000 14954.00000
26.64 38.00000 3.23419 1814.00000 14850.00000
26.66 52.00000 3.21520 1784.00000 14984.00000
26.68 66.00000 3.15824 1748.00000 15308.00000
26.70 62.00000 2.89242 1782.00000 15340.00000
26.72 52.00000 2.87343 1788.00000 15400.00000
26.74 54.00000 2.93988 1700.00000 15442.00000
26.76 52.00000 3.12976 1700.00000 15500.00000
26.78 52.00000 3.14874 1712.00000 15436.00000
26.80 36.00000 3.19621 1812.00000 15452.00000
26.82 42.00000 3.27216 1804.00000 15228.00000
26.84 36.00000 3.29115 1842.00000 14884.00000
26.86 46.00000 3.34811 1800.00000 14942.00000
26.88 50.00000 3.36710 1774.00000 15036.00000
26.90 52.00000 3.38609 1786.00000 15160.00000
26.92 60.00000 3.34811 1848.00000 14970.00000
26.94 70.00000 3.34811 1880.00000 14926.00000
26.96 54.00000 3.35760 1912.00000 15182.00000
26.98 50.00000 3.37659 1898.00000 15308.00000
27.00 56.00000 3.39558 1926.00000 15386.00000
27.02 58.00000 3.36710 1860.00000 15180.00000
27.04 40.00000 3.34811 1906.00000 15376.00000
27.06 44.00000 3.32912 1862.00000 15514.00000
27.08 42.00000 3.27216 1876.00000 15772.00000
27.10 44.00000 3.18672 1804.00000 15526.00000
27.12 52.00000 3.16773 1900.00000 15664.00000
27.14 66.00000 3.24368 1978.00000 15590.00000
27.16 62.00000 3.27216 2100.00000 15508.00000
27.18 74.00000 3.26267 2056.00000 15322.00000
27.20 66.00000 3.24368 1950.00000 15240.00000
27.22 60.00000 3.26267 1930.00000 15298.00000
27.24 50.00000 3.27216 1930.00000 15236.00000
27.26 44.00000 3.31014 1928.00000 15334.00000
27.28 42.00000 3.29115 1960.00000 15322.00000
27.30 56.00000 3.25317 1918.00000 15438.00000
27.32 54.00000 3.25317 1946.00000 15444.00000
27.34 60.00000 3.27216 1874.00000 15696.00000
27.36 54.00000 3.31014 1822.00000 15606.00000
27.38 46.00000 3.31014 1844.00000 15324.00000
27.40 54.00000 3.31963 1880.00000 15426.00000
27.42 62.00000 3.31963 2020.00000 15448.00000
27.44 66.00000 3.31963 2104.00000 15496.00000
27.46 58.00000 3.32912 2188.00000 15358.00000
27.48 48.00000 3.32912 2212.00000 15336.00000
27.50 40.00000 3.31963 2264.00000 15312.00000
27.52 38.00000 3.30064 2294.00000 15916.00000
27.54 42.00000 3.27216 2340.00000 16428.00000
27.56 46.00000 3.16773 2480.00000 17228.00000
27.58 44.00000 3.15824 2564.00000 17988.00000
27.60 44.00000 3.16773 2704.00000 18692.00000
27.62 42.00000 3.15824 2740.00000 19302.00000
27.64 38.00000 3.11077 2848.00000 19238.00000
27.66 62.00000 2.91140 2764.00000 18802.00000
27.68 80.00000 3.05381 2878.00000 18422.00000
27.70 74.00000 3.03482 2938.00000 17822.00000
27.72 58.00000 3.14874 2962.00000 17450.00000
27.74 48.00000 3.13925 2840.00000 17400.00000
27.76 50.00000 3.13925 2674.00000 17126.00000
27.78 38.00000 3.13925 2536.00000 16910.00000
27.80 36.00000 3.13925 2434.00000 16756.00000
27.82 38.00000 3.17723 2480.00000 16596.00000
27.84 50.00000 3.19621 2482.00000 16144.00000
27.86 56.00000 3.17723 2448.00000 15956.00000
27.88 54.00000 3.13925 2394.00000 15902.00000
27.90 62.00000 3.13925 2410.00000 15856.00000
27.92 64.00000 3.13925 2418.00000 15982.00000
27.94 72.00000 3.12976 2428.00000 16210.00000
27.96 58.00000 3.12976 2340.00000 16424.00000
27.98 66.00000 3.13925 2378.00000 16454.00000
28.00 52.00000 3.13925 2328.00000 16442.00000
28.02 60.00000 3.15824 2254.00000 16488.00000
28.04 46.00000 3.17723 2320.00000 16320.00000
28.06 76.00000 3.17723 2382.00000 16278.00000
28.08 78.00000 3.12976 2412.00000 16458.00000
28.10 78.00000 3.12976 2326.00000 16514.00000
28.12 64.00000 3.12976 2288.00000 16382.00000
28.14 76.00000 3.13925 2302.00000 16328.00000
28.16 78.00000 3.13925 2286.00000 16308.00000
28.18 70.00000 3.12976 2286.00000 16174.00000
28.20 54.00000 3.14874 2296.00000 16128.00000
28.22 44.00000 3.14874 2220.00000 16394.00000
28.24 40.00000 3.19621 2174.00000 16346.00000
