~Version
VERS. 2.0
WRAP. NO
~Well
STRT.M 0.82
STOP.M 59.52
STEP.M 0.02
NULL. -999.0
WELL. SYNTH_A
DATE. 2025-12-31
~Curve
DEPT.M
GR.CPS
CL.IN
LD.CPS
SD.CPS
~A
0.24 28.00000 -999.00000 -999.00000 -999.00000
0.26 42.00000 -999.00000 -999.00000 -999.00000
0.28 36.00000 -999.00000 -999.00000 -999.00000
0.30 50.00000 -999.00000 -999.00000 -999.00000
0.32 50.00000 -999.00000 -999.00000 -999.00000
0.34 50.00000 -999.00000 -999.00000 -999.00000
0.36 42.00000 -999.00000 -999.00000 -999.00000
0.38 56.00000 -999.00000 -999.00000 -999.00000
0.40 56.00000 -999.00000 -999.00000 -999.00000
0.42 48.00000 -999.00000 -999.00000 -999.00000
0.44 48.00000 -999.00000 -999.00000 -999.00000
0.46 48.00000 -999.00000 -999.00000 -999.00000
0.48 42.00000 -999.00000 -999.00000 -999.00000
0.50 46.00000 -999.00000 -999.00000 -999.00000
0.52 42.00000 -999.00000 -999.00000 -999.00000
0.54 38.00000 -999.00000 -999.00000 -999.00000
0.56 38.00000 -999.00000 -999.00000 -999.00000
0.58 48.00000 -999.00000 -999.00000 -999.00000
0.60 46.00000 -999.00000 -999.00000 -999.00000
0.62 40.00000 -999.00000 -999.00000 -999.00000
0.64 38.00000 -999.00000 -999.00000 -999.00000
0.66 40.00000 -999.00000 -999.00000 -999.00000
0.68 42.00000 -999.00000 -999.00000 -999.00000
0.70 26.00000 -999.00000 -999.00000 -999.00000
0.72 34.00000 -999.00000 -999.00000 -999.00000
0.74 34.00000 -999.00000 -999.00000 -999.00000
0.76 36.00000 -999.00000 -999.00000 -999.00000
0.78 40.00000 -999.00000 -999.00000 -999.00000
0.80 54.00000 -999.00000 -999.00000 -999.00000
0.82 46.00000 -999.00000 -999.00000 -999.00000
0.84 42.00000 -999.00000 -999.00000 -999.00000
0.86 48.00000 -999.00000 -999.00000 -999.00000
0.88 48.00000 -999.00000 -999.00000 -999.00000
0.90 60.00000 -999.00000 -999.00000 -999.00000
0.92 56.00000 -999.00000 -999.00000 -999.00000
0.94 56.00000 -999.00000 -999.00000 -999.00000
0.96 44.00000 -999.00000 -999.00000 -999.00000
0.98 48.00000 -999.00000 -999.00000 -999.00000
1.00 36.00000 -999.00000 -999.00000 -999.00000
1.02 24.00000 -999.00000 -999.00000 -999.00000
1.04 28.00000 -999.00000 -999.00000 -999.00000
1.06 46.00000 -999.00000 -999.00000 -999.00000
1.08 50.00000 -999.00000 -999.00000 -999.00000
1.10 42.00000 -999.00000 -999.00000 -999.00000
1.12 42.00000 -999.00000 -999.00000 -999.00000
1.14 42.00000 -999.00000 -999.00000 -999.00000
1.16 48.00000 -999.00000 -999.00000 -999.00000
1.18 52.00000 -999.00000 -999.00000 -999.00000
1.20 52.00000 -999.00000 -999.00000 -999.00000
1.22 40.00000 -999.00000 -999.00000 -999.00000
1.24 44.00000 -999.00000 -999.00000 -999.00000
1.26 44.00000 -999.00000 -999.00000 -999.00000
1.28 48.00000 -999.00000 -999.00000 -999.00000
1.30 48.00000 -999.00000 -999.00000 -999.00000
1.32 40.00000 -999.00000 -999.00000 -999.00000
1.34 30.00000 -999.00000 -999.00000 -999.00000
1.36 26.00000 -999.00000 -999.00000 -999.00000
1.38 32.00000 -999.00000 -999.00000 -999.00000
1.40 28.00000 -999.00000 -999.00000 -999.00000
1.42 30.00000 -999.00000 -999.00000 -999.00000
1.44 40.00000 -999.00000 -999.00000 -999.00000
1.46 52.00000 -999.00000 -999.00000 -999.00000
1.48 56.00000 -999.00000 -999.00000 -999.00000
1.50 60.00000 -999.00000 -999.00000 -999.00000
1.52 68.00000 -999.00000 -999.00000 -999.00000
1.54 56.00000 -999.00000 -999.00000 -999.00000
1.56 46.00000 -999.00000 -999.00000 -999.00000
1.58 54.00000 -999.00000 -999.00000 -999.00000
1.60 50.00000 -999.00000 -999.00000 -999.00000
1.62 46.00000 -999.00000 -999.00000 -999.00000
1.64 38.00000 -999.00000 -999.00000 -999.00000
1.66 44.00000 -999.00000 -999.00000 -999.00000
1.68 34.00000 -999.00000 -999.00000 -999.00000
1.70 30.00000 -999.00000 -999.00000 -999.00000
1.72 18.00000 -999.00000 -999.00000 -999.00000
1.74 34.00000 3.14874 -999.00000 -999.00000
1.76 56.00000 3.08229 -999.00000 -999.00000
1.78 60.00000 2.93988 -999.00000 -999.00000
1.80 44.00000 2.87343 -999.00000 -999.00000
1.82 36.00000 2.68356 -999.00000 -999.00000
1.84 30.00000 2.66457 -999.00000 -999.00000
1.86 34.00000 2.63609 -999.00000 -999.00000
1.88 28.00000 2.62659 -999.00000 -999.00000
1.90 32.00000 2.61710 -999.00000 -999.00000
1.92 32.00000 2.60761 -999.00000 -999.00000
1.94 34.00000 2.60761 -999.00000 -999.00000
1.96 38.00000 2.59811 -999.00000 -999.00000
1.98 30.00000 2.60761 -999.00000 -999.00000
2.00 26.00000 2.61710 -999.00000 -999.00000
2.02 16.00000 2.61710 -999.00000 -999.00000
2.04 24.00000 2.61710 -999.00000 -999.00000
2.06 28.00000 2.61710 -999.00000 -999.00000
2.08 32.00000 2.61710 -999.00000 -999.00000
2.10 28.00000 2.61710 -999.00000 -999.00000
2.12 28.00000 2.61710 -999.00000 -999.00000
2.14 36.00000 2.60761 -999.00000 -999.00000
2.16 34.00000 2.58862 -999.00000 -999.00000
2.18 34.00000 2.58862 -999.00000 -999.00000
2.20 38.00000 2.58862 -999.00000 -999.00000
2.22 42.00000 2.59811 -999.00000 -999.00000
2.24 44.00000 2.57913 -999.00000 -999.00000
2.26 38.00000 2.56963 -999.00000 -999.00000
2.28 40.00000 2.56963 3204.00000 -999.00000
2.30 36.00000 2.56963 3380.00000 -999.00000
2.32 40.00000 2.56963 3560.00000 -999.00000
2.34 44.00000 2.56963 3606.00000 -999.00000
2.36 28.00000 2.55064 3664.00000 -999.00000
2.38 24.00000 2.55064 3682.00000 18472.00000
2.40 30.00000 2.54115 3802.00000 18748.00000
2.42 26.00000 2.54115 3986.00000 18782.00000
2.44 26.00000 2.50318 4090.00000 18740.00000
2.46 40.00000 2.47470 4086.00000 18566.00000
2.48 40.00000 2.46520 4052.00000 18278.00000
2.50 42.00000 2.45571 4074.00000 18438.00000
2.52 20.00000 2.43672 4064.00000 18270.00000
2.54 14.00000 2.44621 4146.00000 18104.00000
2.56 24.00000 2.45571 4172.00000 17804.00000
2.58 28.00000 2.45571 4058.00000 17836.00000
2.60 28.00000 2.41773 3932.00000 18078.00000
2.62 12.00000 2.38925 3864.00000 18502.00000
2.64 16.00000 2.37976 3928.00000 18504.00000
2.66 18.00000 2.37976 3916.00000 18540.00000
2.68 24.00000 2.38925 3960.00000 18618.00000
2.70 20.00000 2.38925 4004.00000 18578.00000
2.72 18.00000 2.37976 3942.00000 18398.00000
2.74 14.00000 2.37027 3964.00000 18190.00000
2.76 14.00000 2.34178 3832.00000 17944.00000
2.78 10.00000 2.31330 3978.00000 17606.00000
2.80 16.00000 2.29432 3912.00000 17734.00000
2.82 18.00000 2.29432 3870.00000 17946.00000
2.84 22.00000 2.30381 3672.00000 18204.00000
2.86 22.00000 2.29432 3692.00000 18150.00000
2.88 34.00000 2.30381 3720.00000 18018.00000
2.90 32.00000 2.29432 3704.00000 18088.00000
2.92 36.00000 2.29432 3574.00000 18134.00000
2.94 32.00000 2.30381 3628.00000 18098.00000
2.96 22.00000 2.30381 3654.00000 17806.00000
2.98 18.00000 2.30381 3704.00000 17586.00000
3.00 18.00000 2.29432 3592.00000 17612.00000
3.02 28.00000 2.29432 3594.00000 17530.00000
3.04 40.00000 2.28482 3552.00000 17568.00000
3.06 34.00000 2.28482 3506.00000 17466.00000
3.08 26.00000 2.28482 3508.00000 17256.00000
3.10 14.00000 2.28482 3518.00000 17254.00000
3.12 14.00000 2.29432 3544.00000 17306.00000
3.14 16.00000 2.29432 3516.00000 17528.00000
3.16 14.00000 2.29432 3638.00000 17332.00000
3.18 18.00000 2.28482 3654.00000 17286.00000
3.20 22.00000 2.28482 3664.00000 17130.00000
3.22 22.00000 2.28482 3624.00000 17406.00000
3.24 22.00000 2.28482 3576.00000 17566.00000
3.26 22.00000 2.28482 3552.00000 17622.00000
3.28 24.00000 2.28482 3484.00000 17408.00000
3.30 20.00000 2.28482 3374.00000 17678.00000
3.32 12.00000 2.28482 3322.00000 17866.00000
3.34 4.00000 2.28482 3306.00000 17954.00000
3.36 16.00000 2.28482 3426.00000 17984.00000
3.38 18.00000 2.28482 3464.00000 18050.00000
3.40 28.00000 2.28482 3360.00000 17916.00000
3.42 24.00000 2.28482 3418.00000 17468.00000
3.44 24.00000 2.28482 3388.00000 17332.00000
3.46 12.00000 2.28482 3372.00000 17376.00000
3.48 12.00000 2.29432 3348.00000 17080.00000
3.50 20.00000 2.29432 3346.00000 16896.00000
3.52 24.00000 2.29432 3428.00000 16674.00000
3.54 24.00000 2.27533 3414.00000 16660.00000
3.56 22.00000 2.27533 3482.00000 16758.00000
3.58 16.00000 2.27533 3234.00000 16778.00000
3.60 22.00000 2.28482 3302.00000 17144.00000
3.62 26.00000 2.28482 3264.00000 17210.00000
3.64 20.00000 2.28482 3408.00000 17486.00000
3.66 18.00000 2.28482 3330.00000 17784.00000
3.68 16.00000 2.27533 3340.00000 18050.00000
3.70 20.00000 2.27533 3346.00000 17978.00000
3.72 18.00000 2.28482 3542.00000 18162.00000
3.74 14.00000 2.28482 3520.00000 18220.00000
