~Version
VERS. 2.0
WRAP. NO
~Well
STRT.M 0.27
STOP.M 59.83
STEP.M 0.02
NULL. -999.0
WELL. SYNTH_B
DATE. 2025-12-31
~Curve
DEPT.M
GR.CPS
CL.IN
LD.CPS
SD.CPS
~A
# ...
45.68 40.00000 1.24052 1542.00000 14644.00000
45.70 40.00000 1.25951 1524.00000 14508.00000
45.72 56.00000 1.27850 1456.00000 14606.00000
45.74 46.00000 1.28799 1520.00000 14598.00000
45.76 40.00000 1.27850 1538.00000 14698.00000
45.78 22.00000 1.25951 1524.00000 14484.00000
45.80 28.00000 1.24052 1482.00000 14488.00000
45.82 34.00000 1.25002 1452.00000 14426.00000
45.84 30.00000 1.25951 1378.00000 14478.00000
45.86 28.00000 1.25951 1392.00000 14316.00000
45.88 28.00000 1.25002 1364.00000 14246.00000
45.90 32.00000 1.24052 1396.00000 14074.00000
45.92 32.00000 1.24052 1392.00000 14194.00000
45.94 26.00000 1.24052 1352.00000 14062.00000
45.96 26.00000 1.24052 1352.00000 14404.00000
45.98 24.00000 1.24052 1342.00000 14068.00000
46.00 26.00000 1.25002 1364.00000 14062.00000
46.02 28.00000 1.25951 1306.00000 13840.00000
46.04 30.00000 1.25951 1372.00000 14004.00000
46.06 36.00000 1.25951 1414.00000 14054.00000
46.08 46.00000 1.25002 1380.00000 14158.00000
46.10 52.00000 1.25951 1268.00000 14184.00000
46.12 44.00000 1.25951 1336.00000 14082.00000
46.14 40.00000 1.25951 1338.00000 13936.00000
46.16 48.00000 1.25002 1438.00000 14044.00000
46.18 42.00000 1.25951 1416.00000 13992.00000
46.20 34.00000 1.25951 1412.00000 14284.00000
46.22 30.00000 1.25002 1374.00000 14222.00000
46.24 44.00000 1.25951 1364.00000 14202.00000
46.26 52.00000 1.25002 1270.00000 13862.00000
46.28 48.00000 1.25951 1276.00000 13936.00000
46.30 44.00000 1.25002 1386.00000 13872.00000
46.32 36.00000 1.25002 1456.00000 13806.00000
46.34 44.00000 1.24052 1372.00000 13700.00000
46.36 28.00000 1.24052 1354.00000 13694.00000
46.38 34.00000 1.24052 1390.00000 13666.00000
46.40 24.00000 1.24052 1406.00000 13738.00000
46.42 34.00000 1.24052 1374.00000 13806.00000
46.44 34.00000 1.25002 1342.00000 13672.00000
46.46 34.00000 1.25002 1376.00000 13622.00000
46.48 30.00000 1.25951 1308.00000 13662.00000
46.50 34.00000 1.25002 1300.00000 13796.00000
46.52 54.00000 1.25002 1290.00000 13872.00000
46.54 62.00000 1.24052 1270.00000 14068.00000
46.56 44.00000 1.25002 1216.00000 13920.00000
46.58 34.00000 1.25002 1160.00000 13694.00000
46.60 28.00000 1.25002 1112.00000 13542.00000
46.62 38.00000 1.24052 1120.00000 13522.00000
46.64 48.00000 1.25002 1118.00000 13312.00000
46.66 40.00000 1.25002 1128.00000 12648.00000
46.68 40.00000 1.25002 1146.00000 12296.00000
46.70 26.00000 1.24052 1166.00000 12262.00000
46.72 34.00000 1.24052 1118.00000 12364.00000
46.74 40.00000 1.25951 1070.00000 12552.00000
46.76 44.00000 1.26900 1078.00000 13028.00000
46.78 42.00000 1.26900 1108.00000 13390.00000
46.80 38.00000 1.25951 1134.00000 13708.00000
46.82 32.00000 1.25002 1124.00000 13944.00000
46.84 54.00000 1.24052 1218.00000 14044.00000
46.86 48.00000 1.24052 1226.00000 13954.00000
46.88 42.00000 1.24052 1272.00000 14236.00000
46.90 36.00000 1.24052 1326.00000 14478.00000
46.92 38.00000 1.24052 1376.00000 14434.00000
46.94 52.00000 1.24052 1400.00000 14506.00000
46.96 54.00000 1.24052 1346.00000 14352.00000
46.98 58.00000 1.24052 1360.00000 14406.00000
47.00 38.00000 1.24052 1270.00000 14320.00000
47.02 46.00000 1.24052 1358.00000 14262.00000
47.04 52.00000 1.24052 1350.00000 14246.00000
47.06 56.00000 1.24052 1418.00000 14328.00000
47.08 58.00000 1.24052 1380.00000 14248.00000
47.10 42.00000 1.24052 1334.00000 14160.00000
47.12 50.00000 1.24052 1304.00000 14108.00000
47.14 50.00000 1.24052 1288.00000 14188.00000
47.16 50.00000 1.25951 1316.00000 14126.00000
47.18 36.00000 1.27850 1372.00000 14174.00000
47.20 26.00000 1.27850 1386.00000 14050.00000
47.22 38.00000 1.27850 1410.00000 14162.00000
47.24 38.00000 1.27850 1412.00000 14330.00000
47.26 44.00000 1.27850 1372.00000 14228.00000
47.28 46.00000 1.25951 1384.00000 14282.00000
47.30 52.00000 1.24052 1424.00000 14304.00000
47.32 64.00000 1.24052 1440.00000 14426.00000
47.34 64.00000 1.24052 1416.00000 14392.00000
47.36 52.00000 1.25951 1402.00000 14308.00000
47.38 30.00000 1.27850 1404.00000 14302.00000
47.40 34.00000 1.27850 1350.00000 14242.00000
47.42 44.00000 1.26900 1288.00000 14210.00000
47.44 36.00000 1.25951 1300.00000 14330.00000
47.46 34.00000 1.25002 1346.00000 14546.00000
47.48 32.00000 1.24052 1414.00000 14398.00000
47.50 34.00000 1.24052 1420.00000 14304.00000
47.52 36.00000 1.24052 1432.00000 14330.00000
47.54 36.00000 1.24052 1456.00000 14348.00000
47.56 32.00000 1.24052 1492.00000 14330.00000
47.58 40.00000 1.24052 1578.00000 14310.00000
47.60 34.00000 1.24052 1644.00000 14110.00000
47.62 34.00000 1.24052 1736.00000 14196.00000
47.64 28.00000 1.25002 1858.00000 14756.00000
47.66 28.00000 1.25002 2036.00000 15156.00000
47.68 24.00000 1.25002 2126.00000 15962.00000
47.70 20.00000 1.24052 2354.00000 16820.00000
47.72 12.00000 1.24052 2586.00000 17528.00000
47.74 12.00000 1.24052 2834.00000 17844.00000
47.76 8.00000 1.24052 3226.00000 18422.00000
47.78 16.00000 1.24052 3442.00000 18526.00000
47.80 12.00000 1.24052 3784.00000 18538.00000
47.82 18.00000 1.24052 3890.00000 18300.00000
47.84 16.00000 1.24052 3864.00000 18354.00000
47.86 18.00000 1.24052 3686.00000 18694.00000
47.88 20.00000 1.25002 3720.00000 18710.00000
47.90 18.00000 1.26900 3546.00000 18806.00000
47.92 14.00000 1.27850 3424.00000 18460.00000
47.94 22.00000 1.25951 3100.00000 17978.00000
47.96 16.00000 1.25951 2842.00000 17434.00000
47.98 18.00000 1.26900 2724.00000 17152.00000
48.00 24.00000 1.27850 2588.00000 16332.00000
48.02 26.00000 1.26900 2438.00000 15672.00000
48.04 20.00000 1.26900 2348.00000 15318.00000
48.06 10.00000 1.27850 2274.00000 15332.00000
48.08 14.00000 1.27850 2124.00000 15198.00000
48.10 24.00000 1.26900 1996.00000 15338.00000
48.12 38.00000 1.25951 1918.00000 15630.00000
48.14 48.00000 1.25951 1924.00000 15966.00000
48.16 32.00000 1.25002 1976.00000 15986.00000
48.18 26.00000 1.24052 2108.00000 16032.00000
48.20 16.00000 1.24052 2020.00000 16096.00000
48.22 22.00000 1.25951 2014.00000 16092.00000
48.24 34.00000 1.26900 2190.00000 16074.00000
48.26 40.00000 1.27850 2330.00000 16080.00000
48.28 40.00000 1.26900 2256.00000 16080.00000
48.30 44.00000 1.25951 2192.00000 16114.00000
48.32 38.00000 1.24052 2214.00000 16464.00000
48.34 22.00000 1.25002 2206.00000 16678.00000
48.36 20.00000 1.25002 2106.00000 16562.00000
48.38 24.00000 1.25002 2068.00000 16320.00000
48.40 24.00000 1.25002 2020.00000 15988.00000
48.42 28.00000 1.25002 1938.00000 15776.00000
48.44 26.00000 1.25002 1878.00000 15310.00000
48.46 32.00000 1.24052 1838.00000 14822.00000
48.48 24.00000 1.23103 1760.00000 14682.00000
48.50 44.00000 1.23103 1582.00000 14222.00000
48.52 44.00000 1.24052 1538.00000 14288.00000
48.54 38.00000 1.22154 1484.00000 14266.00000
48.56 24.00000 1.22154 1534.00000 14444.00000
48.58 18.00000 1.22154 1544.00000 14360.00000
48.60 22.00000 1.23103 1534.00000 14232.00000
48.62 26.00000 1.23103 1418.00000 14244.00000
48.64 32.00000 1.22154 1430.00000 14492.00000
48.66 26.00000 1.22154 1472.00000 14574.00000
48.68 38.00000 1.22154 1524.00000 14442.00000
48.70 38.00000 1.23103 1552.00000 14294.00000
48.72 32.00000 1.23103 1544.00000 14312.00000
48.74 52.00000 1.23103 1598.00000 14630.00000
48.76 44.00000 1.23103 1538.00000 14430.00000
48.78 30.00000 1.23103 1504.00000 14380.00000
48.80 28.00000 1.23103 1476.00000 14316.00000
48.82 30.00000 1.23103 1476.00000 14376.00000
48.84 26.00000 1.24052 1452.00000 14468.00000
48.86 24.00000 1.24052 1516.00000 14598.00000
48.88 28.00000 1.23103 1576.00000 14608.00000
48.90 28.00000 1.23103 1568.00000 14520.00000
48.92 30.00000 1.22154 1480.00000 14472.00000
48.94 28.00000 1.23103 1528.00000 14386.00000
48.96 34.00000 1.22154 1594.00000 14296.00000
48.98 46.00000 1.23103 1568.00000 14552.00000
49.00 52.00000 1.23103 1538.00000 14508.00000
49.02 52.00000 1.24052 1536.00000 14558.00000
49.04 32.00000 1.24052 1622.00000 14738.00000
49.06 30.00000 1.24052 1588.00000 14718.00000
49.08 24.00000 1.22154 1516.00000 14774.00000
49.10 24.00000 1.22154 1482.00000 14948.00000
49.12 18.00000 1.22154 1444.00000 15058.00000
49.14 16.00000 1.23103 1476.00000 14752.00000
