~Version
VERS. 2.0
WRAP. NO
~Well
STRT.M 0.82
STOP.M 59.52
STEP.M 0.02
NULL. -999.0
WELL. SYNTH_A
DATE. 2025-12-31
~Curve
DEPT.M
GR.CPS
CL.IN
LD.CPS
SD.CPS
~A
# ...
7.32 44.00000 2.28482 1814.00000 15224.00000
7.34 30.00000 2.28482 1816.00000 15226.00000
7.36 30.00000 2.28482 1808.00000 15250.00000
7.38 34.00000 2.27533 1862.00000 15350.00000
7.40 42.00000 2.27533 1866.00000 15474.00000
7.42 44.00000 2.27533 1926.00000 15416.00000
7.44 30.00000 2.27533 1878.00000 15370.00000
7.46 26.00000 2.27533 1902.00000 15448.00000
7.48 30.00000 2.27533 1882.00000 15406.00000
7.50 24.00000 2.27533 1978.00000 15348.00000
7.52 30.00000 2.27533 1960.00000 15330.00000
7.54 44.00000 2.27533 1922.00000 15384.00000
7.56 58.00000 2.27533 1912.00000 15352.00000
7.58 48.00000 2.27533 1916.00000 15478.00000
7.60 24.00000 2.27533 1966.00000 15422.00000
7.62 18.00000 2.28482 1914.00000 15234.00000
7.64 16.00000 2.27533 1858.00000 15184.00000
7.66 18.00000 2.27533 1822.00000 15288.00000
7.68 24.00000 2.28482 1806.00000 15502.00000
7.70 24.00000 2.26584 1786.00000 15432.00000
7.72 18.00000 2.26584 1752.00000 15570.00000
7.74 38.00000 2.26584 1776.00000 15502.00000
7.76 48.00000 2.28482 1788.00000 15460.00000
7.78 52.00000 2.28482 1842.00000 15140.00000
7.80 26.00000 2.28482 1780.00000 15140.00000
7.82 24.00000 2.24685 1746.00000 15132.00000
7.84 22.00000 2.24685 1684.00000 14988.00000
7.86 24.00000 2.26584 1718.00000 15012.00000
7.88 26.00000 2.27533 1800.00000 14974.00000
7.90 24.00000 2.27533 1802.00000 15118.00000
7.92 14.00000 2.27533 1842.00000 14906.00000
7.94 24.00000 2.28482 1842.00000 15186.00000
7.96 28.00000 2.26584 1914.00000 15208.00000
7.98 30.00000 2.24685 1904.00000 15226.00000
8.00 22.00000 2.21837 1886.00000 15110.00000
8.02 22.00000 2.21837 1912.00000 15044.00000
8.04 20.00000 2.23735 1918.00000 15170.00000
8.06 18.00000 2.26584 1938.00000 15382.00000
8.08 24.00000 2.27533 1914.00000 15358.00000
8.10 34.00000 2.25634 1854.00000 15246.00000
8.12 44.00000 2.24685 1930.00000 15196.00000
8.14 36.00000 2.24685 1952.00000 15454.00000
8.16 38.00000 2.25634 1988.00000 15636.00000
8.18 26.00000 2.27533 1922.00000 15638.00000
8.20 34.00000 2.26584 2000.00000 15706.00000
8.22 40.00000 2.26584 2026.00000 15876.00000
8.24 40.00000 2.27533 2056.00000 15944.00000
8.26 30.00000 2.27533 2052.00000 15922.00000
8.28 36.00000 2.27533 2050.00000 15868.00000
8.30 36.00000 2.26584 2068.00000 15842.00000
8.32 36.00000 2.27533 2038.00000 16046.00000
8.34 46.00000 2.27533 2066.00000 15846.00000
8.36 40.00000 2.26584 2114.00000 15794.00000
8.38 46.00000 2.26584 2162.00000 15736.00000
8.40 50.00000 2.26584 2162.00000 15812.00000
8.42 70.00000 2.26584 2102.00000 15908.00000
8.44 58.00000 2.24685 2072.00000 15934.00000
8.46 46.00000 2.24685 2024.00000 16036.00000
8.48 40.00000 2.26584 2134.00000 15904.00000
8.50 36.00000 2.26584 2156.00000 15942.00000
8.52 48.00000 2.27533 2116.00000 15964.00000
8.54 36.00000 2.29432 2108.00000 15882.00000
8.56 42.00000 2.29432 2112.00000 15890.00000
8.58 36.00000 2.28482 2042.00000 15798.00000
8.60 38.00000 2.27533 2002.00000 15794.00000
8.62 28.00000 2.27533 2024.00000 15840.00000
8.64 26.00000 2.28482 2106.00000 15766.00000
8.66 26.00000 2.28482 2138.00000 15770.00000
8.68 34.00000 2.28482 2128.00000 15476.00000
8.70 36.00000 2.28482 2094.00000 15528.00000
8.72 34.00000 2.28482 2024.00000 15596.00000
8.74 40.00000 2.29432 2016.00000 15622.00000
8.76 34.00000 2.28482 1988.00000 15732.00000
8.78 34.00000 2.27533 2034.00000 15488.00000
8.80 28.00000 2.26584 1990.00000 15428.00000
8.82 36.00000 2.25634 1978.00000 15414.00000
8.84 38.00000 2.26584 1960.00000 15516.00000
8.86 32.00000 2.29432 1980.00000 15230.00000
8.88 34.00000 2.29432 2044.00000 15444.00000
8.90 18.00000 2.29432 1956.00000 15368.00000
8.92 32.00000 2.28482 1944.00000 15588.00000
8.94 44.00000 2.27533 1820.00000 15392.00000
8.96 46.00000 2.27533 1894.00000 15482.00000
8.98 32.00000 2.25634 1862.00000 15458.00000
9.00 26.00000 2.26584 1846.00000 15200.00000
9.02 38.00000 2.26584 1754.00000 14948.00000
9.04 32.00000 2.26584 1724.00000 14918.00000
9.06 28.00000 2.26584 1704.00000 15162.00000
9.08 26.00000 2.26584 1766.00000 15256.00000
9.10 36.00000 2.26584 1740.00000 15028.00000
9.12 42.00000 2.24685 1758.00000 14998.00000
9.14 40.00000 2.26584 1742.00000 14886.00000
9.16 30.00000 2.25634 1808.00000 14804.00000
9.18 28.00000 2.27533 1778.00000 14666.00000
9.20 22.00000 2.27533 1770.00000 14656.00000
9.22 24.00000 2.28482 1786.00000 14794.00000
9.24 18.00000 2.26584 1834.00000 14900.00000
9.26 22.00000 2.26584 1760.00000 14968.00000
9.28 26.00000 2.26584 1700.00000 14898.00000
9.30 24.00000 2.28482 1728.00000 15004.00000
9.32 32.00000 2.28482 1806.00000 14840.00000
9.34 38.00000 2.28482 1696.00000 14834.00000
9.36 46.00000 2.28482 1614.00000 14684.00000
9.38 42.00000 2.26584 1576.00000 14544.00000
9.40 50.00000 2.26584 1606.00000 14536.00000
9.42 50.00000 2.26584 1614.00000 14534.00000
9.44 44.00000 2.28482 1624.00000 14716.00000
9.46 42.00000 2.28482 1650.00000 14730.00000
9.48 30.00000 2.28482 1598.00000 14804.00000
9.50 24.00000 2.26584 1568.00000 14950.00000
9.52 26.00000 2.26584 1520.00000 14970.00000
9.54 36.00000 2.28482 1556.00000 14918.00000
9.56 30.00000 2.28482 1546.00000 14740.00000
9.58 34.00000 2.28482 1574.00000 14394.00000
9.60 30.00000 2.26584 1592.00000 14132.00000
9.62 34.00000 2.26584 1652.00000 14322.00000
9.64 52.00000 2.26584 1504.00000 14610.00000
9.66 48.00000 2.28482 1490.00000 14634.00000
9.68 42.00000 2.28482 1464.00000 14610.00000
9.70 20.00000 2.24685 1536.00000 14812.00000
9.72 18.00000 2.24685 1508.00000 14608.00000
9.74 22.00000 2.26584 1548.00000 14608.00000
9.76 44.00000 2.28482 1666.00000 14612.00000
9.78 48.00000 2.28482 1686.00000 14724.00000
9.80 38.00000 2.28482 1714.00000 14534.00000
9.82 20.00000 2.24685 1630.00000 14198.00000
9.84 26.00000 2.24685 1648.00000 14292.00000
9.86 30.00000 2.26584 1686.00000 14636.00000
9.88 42.00000 2.28482 1728.00000 14620.00000
9.90 36.00000 2.28482 1728.00000 14680.00000
9.92 40.00000 2.27533 1698.00000 14688.00000
9.94 38.00000 2.26584 1696.00000 15042.00000
9.96 50.00000 2.27533 1718.00000 15378.00000
9.98 42.00000 2.25634 1670.00000 15396.00000
10.00 32.00000 2.26584 1726.00000 15514.00000
10.02 28.00000 2.25634 1728.00000 15282.00000
10.04 38.00000 2.25634 1776.00000 15174.00000
10.06 50.00000 2.26584 1766.00000 15394.00000
10.08 50.00000 2.25634 1712.00000 15314.00000
10.10 38.00000 2.27533 1660.00000 15320.00000
10.12 44.00000 2.27533 1748.00000 15146.00000
10.14 38.00000 2.28482 1842.00000 15342.00000
10.16 40.00000 2.27533 1892.00000 15294.00000
10.18 48.00000 2.26584 1822.00000 15398.00000
10.20 50.00000 2.26584 1744.00000 15244.00000
10.22 60.00000 2.26584 1750.00000 15208.00000
10.24 38.00000 2.26584 1782.00000 15110.00000
10.26 30.00000 2.26584 1788.00000 15032.00000
10.28 22.00000 2.25634 1740.00000 14866.00000
10.30 28.00000 2.24685 1612.00000 14670.00000
10.32 40.00000 2.24685 1616.00000 14600.00000
10.34 38.00000 2.25634 1712.00000 14726.00000
10.36 34.00000 2.25634 1720.00000 14878.00000
10.38 34.00000 2.26584 1628.00000 14770.00000
10.40 34.00000 2.26584 1618.00000 14736.00000
10.42 38.00000 2.26584 1634.00000 14778.00000
10.44 28.00000 2.26584 1692.00000 14746.00000
10.46 32.00000 2.25634 1700.00000 14542.00000
10.48 30.00000 2.26584 1662.00000 14444.00000
10.50 32.00000 2.27533 1664.00000 14676.00000
10.52 36.00000 2.27533 1646.00000 14608.00000
10.54 28.00000 2.27533 1654.00000 14594.00000
10.56 32.00000 2.27533 1612.00000 14564.00000
10.58 34.00000 2.28482 1626.00000 14856.00000
10.60 38.00000 2.27533 1562.00000 14966.00000
10.62 42.00000 2.26584 1608.00000 15126.00000
10.64 50.00000 2.26584 1660.00000 15074.00000
10.66 54.00000 2.26584 1708.00000 15100.00000
10.68 52.00000 2.26584 1696.00000 15062.00000
10.70 42.00000 2.26584 1680.00000 15002.00000
10.72 38.00000 2.26584 1676.00000 14802.00000
10.74 38.00000 2.24685 1704.00000 14576.00000
10.76 36.00000 2.25634 1718.00000 14834.00000
10.78 24.00000 2.25634 1686.00000 14830.00000
10.80 30.00000 2.26584 1670.00000 14894.00000
10.82 26.00000 2.24685 1640.00000 14858.00000
10.84 30.00000 2.25634 1644.00000 14804.00000
