~Version
VERS. 2.0
WRAP. NO
~Well
STRT.M 0.27
STOP.M 59.83
STEP.M 0.02
NULL. -999.0
WELL. SYNTH_B
DATE. 2025-12-31
~Curve
DEPT.M
GR.CPS
CL.IN
LD.CPS
SD.CPS
~A
# ...
17.82 48.00000 1.49685 1732.00000 14762.00000
17.84 54.00000 1.51584 1724.00000 14662.00000
17.86 48.00000 1.49685 1662.00000 14600.00000
17.88 32.00000 1.49685 1754.00000 14766.00000
17.90 26.00000 1.51584 1710.00000 14816.00000
17.92 36.00000 1.50634 1722.00000 14942.00000
17.94 38.00000 1.51584 1716.00000 14814.00000
17.96 58.00000 1.50634 1716.00000 14838.00000
17.98 52.00000 1.49685 1738.00000 14936.00000
18.00 42.00000 1.49685 1752.00000 14960.00000
18.02 34.00000 1.48736 1734.00000 14970.00000
18.04 36.00000 1.49685 1748.00000 15070.00000
18.06 48.00000 1.50634 1690.00000 14964.00000
18.08 48.00000 1.50634 1736.00000 15192.00000
18.10 42.00000 1.50634 1734.00000 15086.00000
18.12 38.00000 1.48736 1716.00000 15182.00000
18.14 40.00000 1.50634 1722.00000 14968.00000
18.16 42.00000 1.49685 1762.00000 15106.00000
18.18 36.00000 1.51584 1758.00000 15050.00000
18.20 28.00000 1.50634 1748.00000 14936.00000
18.22 32.00000 1.49685 1638.00000 14970.00000
18.24 30.00000 1.49685 1644.00000 14862.00000
18.26 34.00000 1.49685 1712.00000 14894.00000
18.28 38.00000 1.51584 1716.00000 14778.00000
18.30 40.00000 1.50634 1738.00000 14756.00000
18.32 40.00000 1.51584 1782.00000 14750.00000
18.34 42.00000 1.50634 1798.00000 14776.00000
18.36 42.00000 1.49685 1818.00000 14820.00000
18.38 32.00000 1.50634 1798.00000 14912.00000
18.40 18.00000 1.48736 1754.00000 14930.00000
18.42 26.00000 1.50634 1752.00000 14680.00000
18.44 26.00000 1.49685 1740.00000 14736.00000
18.46 34.00000 1.50634 1754.00000 14674.00000
18.48 30.00000 1.50634 1748.00000 14790.00000
18.50 28.00000 1.49685 1774.00000 15012.00000
18.52 40.00000 1.49685 1760.00000 15228.00000
18.54 34.00000 1.50634 1714.00000 15288.00000
18.56 34.00000 1.50634 1650.00000 15124.00000
18.58 30.00000 1.50634 1628.00000 14858.00000
18.60 38.00000 1.50634 1754.00000 14916.00000
18.62 40.00000 1.50634 1832.00000 15002.00000
18.64 48.00000 1.50634 2032.00000 15042.00000
18.66 42.00000 1.50634 2042.00000 14982.00000
18.68 54.00000 1.50634 1942.00000 15080.00000
18.70 44.00000 1.50634 1908.00000 15194.00000
18.72 60.00000 1.50634 1904.00000 15294.00000
18.74 38.00000 1.49685 1882.00000 15282.00000
18.76 42.00000 1.50634 1834.00000 15212.00000
18.78 36.00000 1.50634 1820.00000 15102.00000
18.80 34.00000 1.51584 1786.00000 15188.00000
18.82 32.00000 1.49685 1756.00000 15208.00000
18.84 36.00000 1.50634 1762.00000 15330.00000
18.86 36.00000 1.48736 1742.00000 15088.00000
18.88 34.00000 1.50634 1750.00000 14832.00000
18.90 34.00000 1.49685 1720.00000 14638.00000
18.92 32.00000 1.50634 1742.00000 14700.00000
18.94 32.00000 1.49685 1698.00000 14774.00000
18.96 22.00000 1.51584 1694.00000 14766.00000
18.98 26.00000 1.50634 1622.00000 14652.00000
19.00 30.00000 1.49685 1612.00000 14580.00000
19.02 30.00000 1.49685 1608.00000 14690.00000
19.04 24.00000 1.50634 1716.00000 14874.00000
19.06 30.00000 1.51584 1742.00000 14958.00000
19.08 36.00000 1.51584 1686.00000 14798.00000
19.10 40.00000 1.50634 1692.00000 14724.00000
19.12 46.00000 1.51584 1686.00000 14760.00000
19.14 36.00000 1.50634 1618.00000 14830.00000
19.16 30.00000 1.50634 1528.00000 14590.00000
19.18 36.00000 1.49685 1622.00000 14540.00000
19.20 44.00000 1.50634 1620.00000 14662.00000
19.22 48.00000 1.49685 1634.00000 14814.00000
19.24 42.00000 1.50634 1638.00000 14604.00000
19.26 44.00000 1.49685 1704.00000 14304.00000
19.28 42.00000 1.51584 1694.00000 14392.00000
19.30 44.00000 1.49685 1658.00000 14562.00000
19.32 30.00000 1.50634 1672.00000 14742.00000
19.34 30.00000 1.49685 1694.00000 14700.00000
19.36 28.00000 1.50634 1704.00000 14638.00000
19.38 30.00000 1.49685 1608.00000 14754.00000
19.40 40.00000 1.51584 1636.00000 14828.00000
19.42 40.00000 1.49685 1676.00000 14860.00000
19.44 44.00000 1.50634 1680.00000 14764.00000
19.46 38.00000 1.48736 1632.00000 14806.00000
19.48 28.00000 1.50634 1622.00000 14670.00000
19.50 30.00000 1.50634 1574.00000 14812.00000
19.52 30.00000 1.49685 1518.00000 14734.00000
19.54 34.00000 1.49685 1534.00000 14738.00000
19.56 36.00000 1.49685 1514.00000 14656.00000
19.58 32.00000 1.50634 1544.00000 14806.00000
19.60 28.00000 1.49685 1632.00000 14872.00000
19.62 24.00000 1.50634 1662.00000 14768.00000
19.64 36.00000 1.50634 1672.00000 14814.00000
19.66 38.00000 1.51584 1622.00000 14724.00000
19.68 36.00000 1.50634 1682.00000 14842.00000
19.70 28.00000 1.51584 1686.00000 15026.00000
19.72 32.00000 1.49685 1672.00000 15064.00000
19.74 46.00000 1.50634 1586.00000 15068.00000
19.76 50.00000 1.48736 1568.00000 14886.00000
19.78 54.00000 1.50634 1640.00000 14696.00000
19.80 38.00000 1.49685 1716.00000 14950.00000
19.82 26.00000 1.51584 1778.00000 15070.00000
19.84 28.00000 1.50634 1732.00000 14966.00000
19.86 30.00000 1.50634 1614.00000 14840.00000
19.88 36.00000 1.48736 1584.00000 14834.00000
19.90 34.00000 1.50634 1500.00000 14826.00000
19.92 36.00000 1.50634 1590.00000 14996.00000
19.94 34.00000 1.51584 1580.00000 15004.00000
19.96 40.00000 1.48736 1576.00000 14914.00000
19.98 42.00000 1.48736 1490.00000 14776.00000
20.00 44.00000 1.48736 1522.00000 14740.00000
20.02 32.00000 1.49685 1458.00000 14578.00000
20.04 32.00000 1.48736 1478.00000 14280.00000
20.06 28.00000 1.49685 1516.00000 14130.00000
20.08 32.00000 1.50634 1518.00000 14086.00000
20.10 40.00000 1.49685 1426.00000 14366.00000
20.12 36.00000 1.48736 1388.00000 14284.00000
20.14 26.00000 1.49685 1472.00000 14384.00000
20.16 22.00000 1.51584 1510.00000 14498.00000
20.18 16.00000 1.51584 1590.00000 14640.00000
20.20 20.00000 1.50634 1594.00000 14698.00000
20.22 20.00000 1.48736 1588.00000 14624.00000
20.24 28.00000 1.48736 1596.00000 14728.00000
20.26 26.00000 1.50634 1660.00000 14698.00000
20.28 24.00000 1.51584 1660.00000 14868.00000
20.30 24.00000 1.51584 1696.00000 14704.00000
20.32 32.00000 1.49685 1630.00000 14710.00000
20.34 26.00000 1.47786 1622.00000 14642.00000
20.36 28.00000 1.48736 1620.00000 14640.00000
20.38 18.00000 1.50634 1620.00000 14396.00000
20.40 22.00000 1.52533 1626.00000 14396.00000
20.42 34.00000 1.50634 1676.00000 14492.00000
20.44 36.00000 1.50634 1784.00000 14556.00000
20.46 32.00000 1.49685 1704.00000 14750.00000
20.48 20.00000 1.50634 1686.00000 14742.00000
20.50 30.00000 1.49685 1570.00000 14658.00000
20.52 36.00000 1.49685 1518.00000 14618.00000
20.54 36.00000 1.50634 1502.00000 14796.00000
20.56 36.00000 1.49685 1518.00000 14654.00000
20.58 30.00000 1.50634 1622.00000 14532.00000
20.60 32.00000 1.50634 1644.00000 14552.00000
20.62 32.00000 1.50634 1640.00000 14576.00000
20.64 44.00000 1.49685 1598.00000 14718.00000
20.66 50.00000 1.50634 1620.00000 14750.00000
20.68 46.00000 1.51584 1584.00000 14744.00000
20.70 30.00000 1.49685 1586.00000 14638.00000
20.72 26.00000 1.47786 1578.00000 14490.00000
20.74 26.00000 1.48736 1590.00000 14750.00000
20.76 30.00000 1.51584 1600.00000 14664.00000
20.78 30.00000 1.51584 1586.00000 14556.00000
20.80 32.00000 1.49685 1658.00000 14706.00000
20.82 22.00000 1.48736 1654.00000 14708.00000
20.84 22.00000 1.50634 1724.00000 14704.00000
20.86 34.00000 1.51584 1696.00000 14360.00000
20.88 36.00000 1.51584 1656.00000 14594.00000
20.90 36.00000 1.49685 1658.00000 14778.00000
20.92 38.00000 1.48736 1610.00000 14876.00000
20.94 46.00000 1.50634 1636.00000 14604.00000
20.96 42.00000 1.51584 1686.00000 14512.00000
20.98 36.00000 1.52533 1768.00000 14766.00000
21.00 44.00000 1.49685 1686.00000 14940.00000
21.02 46.00000 1.49685 1700.00000 15028.00000
21.04 48.00000 1.48736 1726.00000 15036.00000
21.06 48.00000 1.49685 1818.00000 15192.00000
21.08 58.00000 1.47786 1784.00000 15194.00000
21.10 46.00000 1.48736 1780.00000 15058.00000
21.12 30.00000 1.49685 1750.00000 15050.00000
21.14 28.00000 1.50634 1812.00000 15172.00000
21.16 32.00000 1.49685 1786.00000 15348.00000
21.18 40.00000 1.49685 1830.00000 15332.00000
21.20 44.00000 1.50634 1754.00000 15314.00000
21.22 46.00000 1.49685 1710.00000 15482.00000
21.24 46.00000 1.49685 1736.00000 15448.00000
21.26 40.00000 1.48736 1790.00000 15472.00000
21.28 28.00000 1.48736 1778.00000 15082.00000
