~Version
VERS. 2.0
WRAP. NO
~Well
STRT.M 0.82
STOP.M 59.52
STEP.M 0.02
NULL. -999.0
WELL. SYNTH_A
DATE. 2025-12-31
~Curve
DEPT.M
GR.CPS
CL.IN
LD.CPS
SD.CPS
~A
# ...
3.76 12.00000 2.28482 3600.00000 18266.00000
3.78 8.00000 2.28482 3580.00000 18012.00000
3.80 14.00000 2.28482 3572.00000 17694.00000
3.82 20.00000 2.28482 3468.00000 17678.00000
3.84 22.00000 2.28482 3434.00000 17634.00000
3.86 24.00000 2.28482 3416.00000 17870.00000
3.88 22.00000 2.28482 3428.00000 17778.00000
3.90 26.00000 2.28482 3504.00000 17904.00000
3.92 34.00000 2.27533 3380.00000 17934.00000
3.94 36.00000 2.27533 3406.00000 18026.00000
3.96 28.00000 2.28482 3368.00000 18266.00000
3.98 32.00000 2.27533 3382.00000 18300.00000
4.00 44.00000 2.27533 3312.00000 17996.00000
4.02 42.00000 2.27533 3394.00000 17524.00000
4.04 34.00000 2.28482 3446.00000 17470.00000
4.06 32.00000 2.28482 3510.00000 17534.00000
4.08 30.00000 2.28482 3498.00000 17696.00000
4.10 22.00000 2.28482 3574.00000 17770.00000
4.12 16.00000 2.28482 3526.00000 17962.00000
4.14 26.00000 2.26584 3532.00000 18200.00000
4.16 30.00000 2.26584 3524.00000 18442.00000
4.18 18.00000 2.26584 3624.00000 18650.00000
4.20 24.00000 2.28482 3578.00000 18476.00000
4.22 22.00000 2.28482 3558.00000 18546.00000
4.24 28.00000 2.28482 3574.00000 18048.00000
4.26 34.00000 2.28482 3556.00000 17610.00000
4.28 32.00000 2.28482 3534.00000 17060.00000
4.30 20.00000 2.28482 3576.00000 17038.00000
4.32 18.00000 2.28482 3520.00000 17170.00000
4.34 22.00000 2.28482 3412.00000 17522.00000
4.36 38.00000 2.28482 3280.00000 17638.00000
4.38 34.00000 2.55064 3314.00000 17676.00000
4.40 34.00000 3.39558 3322.00000 17618.00000
4.42 30.00000 4.12659 3340.00000 17450.00000
4.44 28.00000 4.34494 3310.00000 17152.00000
4.46 28.00000 4.38292 3320.00000 17404.00000
4.48 26.00000 4.67722 3296.00000 17600.00000
4.50 22.00000 4.80064 3246.00000 17864.00000
4.52 14.00000 4.85760 3304.00000 17928.00000
4.54 16.00000 4.86709 3346.00000 17918.00000
4.56 24.00000 4.87659 3396.00000 18146.00000
4.58 36.00000 4.83861 3294.00000 18146.00000
4.60 34.00000 4.81962 3216.00000 18052.00000
4.62 30.00000 4.74368 3228.00000 17812.00000
4.64 22.00000 4.70570 3324.00000 17964.00000
4.66 36.00000 4.76266 3282.00000 17902.00000
4.68 40.00000 4.80064 3184.00000 18004.00000
4.70 46.00000 4.36393 3076.00000 17940.00000
4.72 38.00000 3.34811 3044.00000 17942.00000
4.74 22.00000 2.28482 3030.00000 17858.00000
4.76 16.00000 2.28482 2978.00000 17782.00000
4.78 20.00000 2.75950 3040.00000 17500.00000
4.80 28.00000 2.99685 2954.00000 17496.00000
4.82 32.00000 4.21203 2914.00000 17450.00000
4.84 32.00000 3.73735 2850.00000 17360.00000
4.86 22.00000 2.92090 2890.00000 16984.00000
4.88 16.00000 2.28482 2870.00000 16912.00000
4.90 28.00000 2.67406 2882.00000 16852.00000
4.92 32.00000 4.15507 2822.00000 16864.00000
4.94 42.00000 5.61709 2838.00000 16730.00000
4.96 32.00000 4.59178 2700.00000 16598.00000
4.98 38.00000 2.96836 2684.00000 16564.00000
5.00 34.00000 2.32280 2580.00000 16602.00000
5.02 32.00000 2.31330 2596.00000 16680.00000
5.04 30.00000 2.30381 2580.00000 16892.00000
5.06 22.00000 2.29432 2480.00000 17026.00000
5.08 30.00000 2.28482 2368.00000 16876.00000
5.10 30.00000 2.29432 2366.00000 16472.00000
5.12 22.00000 2.29432 2398.00000 16526.00000
5.14 16.00000 2.28482 2430.00000 16576.00000
5.16 18.00000 2.28482 2454.00000 16290.00000
5.18 24.00000 2.28482 2426.00000 16208.00000
5.20 14.00000 2.28482 2400.00000 16318.00000
5.22 14.00000 2.28482 2354.00000 16506.00000
5.24 24.00000 2.28482 2470.00000 16530.00000
5.26 30.00000 2.28482 2440.00000 16488.00000
5.28 26.00000 2.28482 2498.00000 16290.00000
5.30 20.00000 2.30381 2506.00000 16224.00000
5.32 20.00000 2.31330 2416.00000 16214.00000
5.34 28.00000 2.31330 2390.00000 16518.00000
5.36 28.00000 2.30381 2312.00000 16640.00000
5.38 30.00000 2.30381 2310.00000 16704.00000
5.40 20.00000 2.29432 2258.00000 16864.00000
5.42 28.00000 2.29432 2246.00000 17080.00000
5.44 20.00000 2.28482 2316.00000 16916.00000
5.46 26.00000 2.28482 2328.00000 16718.00000
5.48 16.00000 2.27533 2310.00000 16732.00000
5.50 20.00000 2.27533 2226.00000 16946.00000
5.52 22.00000 2.27533 2194.00000 17054.00000
5.54 38.00000 2.27533 2236.00000 16970.00000
5.56 36.00000 2.27533 2248.00000 16812.00000
5.58 42.00000 2.27533 2296.00000 16692.00000
5.60 46.00000 2.28482 2234.00000 16528.00000
5.62 52.00000 2.28482 2102.00000 16302.00000
5.64 50.00000 2.28482 2008.00000 16148.00000
5.66 54.00000 2.28482 1934.00000 16062.00000
5.68 40.00000 2.28482 1948.00000 15954.00000
5.70 24.00000 2.28482 1900.00000 15994.00000
5.72 20.00000 2.28482 1908.00000 15558.00000
5.74 26.00000 2.28482 1910.00000 15526.00000
5.76 26.00000 2.28482 1958.00000 15388.00000
5.78 32.00000 2.28482 1946.00000 15118.00000
5.80 30.00000 2.28482 1912.00000 15304.00000
5.82 40.00000 2.28482 1968.00000 15358.00000
5.84 48.00000 2.28482 1880.00000 15376.00000
5.86 40.00000 2.27533 1820.00000 15356.00000
5.88 36.00000 2.27533 1754.00000 15290.00000
5.90 26.00000 2.27533 1762.00000 15644.00000
5.92 30.00000 2.26584 1790.00000 15526.00000
5.94 22.00000 2.26584 1868.00000 15240.00000
5.96 22.00000 2.28482 1840.00000 15032.00000
5.98 16.00000 2.28482 1854.00000 15272.00000
6.00 30.00000 2.28482 1964.00000 15482.00000
6.02 30.00000 2.26584 1904.00000 15506.00000
6.04 32.00000 2.26584 1846.00000 15192.00000
6.06 28.00000 2.26584 1822.00000 14904.00000
6.08 38.00000 2.28482 1798.00000 15114.00000
6.10 38.00000 2.26584 1682.00000 15230.00000
6.12 32.00000 2.26584 1684.00000 15036.00000
6.14 32.00000 2.28482 1736.00000 15018.00000
6.16 34.00000 2.26584 1668.00000 14910.00000
6.18 36.00000 2.26584 1548.00000 14930.00000
6.20 38.00000 2.26584 1464.00000 14624.00000
6.22 50.00000 2.28482 1478.00000 14416.00000
6.24 46.00000 2.26584 1484.00000 14060.00000
6.26 26.00000 2.26584 1492.00000 14032.00000
6.28 24.00000 2.27533 1446.00000 13746.00000
6.30 22.00000 2.28482 1428.00000 13910.00000
6.32 18.00000 2.28482 1414.00000 13928.00000
6.34 14.00000 2.28482 1506.00000 14074.00000
6.36 24.00000 2.28482 1560.00000 13876.00000
6.38 42.00000 2.28482 1420.00000 14020.00000
6.40 56.00000 2.28482 1386.00000 14022.00000
6.42 52.00000 2.28482 1350.00000 14212.00000
6.44 44.00000 2.28482 1440.00000 14422.00000
6.46 32.00000 2.28482 1450.00000 14542.00000
6.48 38.00000 2.28482 1492.00000 14508.00000
6.50 38.00000 2.28482 1556.00000 14944.00000
6.52 38.00000 2.28482 1642.00000 14934.00000
6.54 30.00000 2.27533 1706.00000 15200.00000
6.56 30.00000 2.26584 1586.00000 15142.00000
6.58 24.00000 2.26584 1568.00000 14978.00000
6.60 20.00000 2.27533 1542.00000 14892.00000
6.62 24.00000 2.28482 1608.00000 14968.00000
6.64 32.00000 2.28482 1644.00000 15046.00000
6.66 28.00000 2.28482 1602.00000 14958.00000
6.68 26.00000 2.26584 1634.00000 14844.00000
6.70 16.00000 2.24685 1622.00000 14822.00000
6.72 22.00000 2.24685 1730.00000 14840.00000
6.74 24.00000 2.28482 1752.00000 14894.00000
6.76 28.00000 2.28482 1738.00000 14928.00000
6.78 22.00000 2.28482 1724.00000 15054.00000
6.80 22.00000 2.28482 1688.00000 15314.00000
6.82 28.00000 2.28482 1724.00000 15310.00000
6.84 24.00000 2.28482 1742.00000 15658.00000
6.86 22.00000 2.28482 1858.00000 15750.00000
6.88 14.00000 2.28482 1880.00000 15948.00000
6.90 18.00000 2.27533 1852.00000 15920.00000
6.92 22.00000 2.27533 1864.00000 16266.00000
6.94 24.00000 2.27533 1948.00000 16168.00000
6.96 28.00000 2.28482 1954.00000 16336.00000
6.98 28.00000 2.28482 2018.00000 16292.00000
7.00 28.00000 2.28482 1960.00000 16338.00000
7.02 30.00000 2.28482 1944.00000 16268.00000
7.04 44.00000 2.27533 1966.00000 16060.00000
7.06 44.00000 2.27533 2006.00000 16124.00000
7.08 32.00000 2.28482 2008.00000 15996.00000
7.10 12.00000 2.27533 2030.00000 15944.00000
7.12 22.00000 2.27533 1994.00000 15710.00000
7.14 28.00000 2.27533 1960.00000 15558.00000
7.16 34.00000 2.28482 1774.00000 15318.00000
7.18 30.00000 2.28482 1752.00000 15134.00000
7.20 30.00000 2.28482 1778.00000 15118.00000
7.22 28.00000 2.28482 1764.00000 14972.00000
7.24 38.00000 2.28482 1824.00000 14998.00000
7.26 40.00000 2.28482 1844.00000 14852.00000
7.28 38.00000 2.28482 1822.00000 14972.00000
7.30 40.00000 2.28482 1840.00000 15138.00000
