~Version
VERS. 2.0
WRAP. NO
~Well
STRT.M 0.82
STOP.M 59.52
STEP.M 0.02
NULL. -999.0
WELL. SYNTH_A
DATE. 2025-12-31
~Curve
DEPT.M
GR.CPS
CL.IN
LD.CPS
SD.CPS
~A
# ...
35.26 26.00000 2.18039 1538.00000 14054.00000
35.28 16.00000 2.16141 1502.00000 14028.00000
35.30 14.00000 2.15191 1422.00000 13900.00000
35.32 8.00000 2.17090 1408.00000 13866.00000
35.34 14.00000 2.15191 1392.00000 14004.00000
35.36 20.00000 2.16141 1426.00000 14106.00000
35.38 20.00000 2.18039 1450.00000 14362.00000
35.40 20.00000 2.17090 1502.00000 14460.00000
35.42 12.00000 2.16141 1540.00000 14770.00000
35.44 14.00000 2.16141 1544.00000 14998.00000
35.46 26.00000 2.16141 1570.00000 15174.00000
35.48 24.00000 2.17090 1598.00000 15030.00000
35.50 22.00000 2.17090 1588.00000 14886.00000
35.52 28.00000 2.18989 1640.00000 14910.00000
35.54 34.00000 2.18989 1656.00000 15036.00000
35.56 36.00000 2.18989 1644.00000 14872.00000
35.58 26.00000 2.18989 1574.00000 15012.00000
35.60 26.00000 2.18989 1584.00000 14876.00000
35.62 26.00000 2.18989 1610.00000 15134.00000
35.64 26.00000 2.18989 1588.00000 15166.00000
35.66 18.00000 2.18039 1680.00000 15136.00000
35.68 14.00000 2.18039 1754.00000 15268.00000
35.70 16.00000 2.18039 1778.00000 15232.00000
35.72 24.00000 2.18039 1712.00000 15184.00000
35.74 20.00000 2.18039 1670.00000 14998.00000
35.76 16.00000 2.18039 1796.00000 14972.00000
35.78 18.00000 2.18989 1736.00000 14714.00000
35.80 28.00000 2.18989 1754.00000 14846.00000
35.82 28.00000 2.18989 1604.00000 15240.00000
35.84 28.00000 2.18989 1592.00000 15554.00000
35.86 28.00000 2.17090 1574.00000 15302.00000
35.88 26.00000 2.17090 1592.00000 15210.00000
35.90 26.00000 2.17090 1560.00000 15154.00000
35.92 30.00000 2.18989 1590.00000 15240.00000
35.94 30.00000 2.17090 1612.00000 15194.00000
35.96 34.00000 2.17090 1656.00000 15144.00000
35.98 36.00000 2.17090 1592.00000 15098.00000
36.00 40.00000 2.18989 1698.00000 14960.00000
36.02 42.00000 2.18989 1734.00000 14966.00000
36.04 38.00000 2.18989 1720.00000 15050.00000
36.06 26.00000 2.18989 1706.00000 15050.00000
36.08 20.00000 2.18989 1816.00000 14936.00000
36.10 12.00000 2.18039 1702.00000 14820.00000
36.12 14.00000 2.18039 1740.00000 15054.00000
36.14 18.00000 2.18039 1744.00000 15042.00000
36.16 24.00000 2.18989 1770.00000 14966.00000
36.18 28.00000 2.18039 1736.00000 14964.00000
36.20 22.00000 2.18039 1738.00000 14884.00000
36.22 22.00000 2.17090 1858.00000 14918.00000
36.24 28.00000 2.18039 1884.00000 15174.00000
36.26 34.00000 2.18039 1822.00000 15182.00000
36.28 30.00000 2.17090 1680.00000 15252.00000
36.30 24.00000 2.17090 1706.00000 15064.00000
36.32 40.00000 2.18989 1660.00000 14972.00000
36.34 46.00000 2.18989 1742.00000 14774.00000
36.36 38.00000 2.18989 1750.00000 14758.00000
36.38 42.00000 2.18989 1698.00000 14740.00000
36.40 42.00000 2.18989 1712.00000 14736.00000
36.42 46.00000 2.18989 1752.00000 14832.00000
36.44 46.00000 2.18989 1748.00000 14864.00000
36.46 48.00000 2.18989 1762.00000 15070.00000
36.48 50.00000 2.18989 1780.00000 15054.00000
36.50 42.00000 2.18989 1752.00000 14970.00000
36.52 38.00000 2.18989 1776.00000 15106.00000
36.54 36.00000 2.18039 1836.00000 15120.00000
36.56 28.00000 2.18039 1828.00000 15314.00000
36.58 40.00000 2.18039 1768.00000 15390.00000
36.60 38.00000 2.17090 1702.00000 15204.00000
36.62 36.00000 2.17090 1760.00000 15324.00000
36.64 20.00000 2.18989 1830.00000 15378.00000
36.66 18.00000 2.18039 1828.00000 15478.00000
36.68 32.00000 2.18039 1746.00000 15434.00000
36.70 38.00000 2.18039 1740.00000 15640.00000
36.72 32.00000 2.18989 1796.00000 15440.00000
36.74 34.00000 2.17090 1812.00000 15116.00000
36.76 38.00000 2.17090 1814.00000 14902.00000
36.78 42.00000 2.17090 1790.00000 15062.00000
36.80 38.00000 2.18039 1776.00000 14988.00000
36.82 42.00000 2.18039 1728.00000 14920.00000
36.84 60.00000 2.17090 1720.00000 14860.00000
36.86 46.00000 2.17090 1788.00000 14900.00000
36.88 30.00000 2.16141 1766.00000 14962.00000
36.90 42.00000 2.16141 1724.00000 14998.00000
36.92 44.00000 2.17090 1684.00000 15018.00000
36.94 54.00000 2.18989 1748.00000 14968.00000
36.96 42.00000 2.18989 1748.00000 14844.00000
36.98 46.00000 2.18989 1708.00000 14872.00000
37.00 44.00000 2.18989 1610.00000 14838.00000
37.02 34.00000 2.18989 1674.00000 14758.00000
37.04 22.00000 2.18989 1760.00000 14644.00000
37.06 38.00000 2.18989 1856.00000 14564.00000
37.08 38.00000 2.18039 1812.00000 14598.00000
37.10 34.00000 2.18039 1780.00000 14914.00000
37.12 18.00000 2.18989 1758.00000 15106.00000
37.14 24.00000 2.18989 1654.00000 15070.00000
37.16 28.00000 2.17090 1636.00000 15132.00000
37.18 34.00000 2.17090 1690.00000 15078.00000
37.20 36.00000 2.17090 1676.00000 14964.00000
37.22 32.00000 2.18989 1716.00000 14958.00000
37.24 28.00000 2.18039 1714.00000 14976.00000
37.26 40.00000 2.18039 1680.00000 15052.00000
37.28 32.00000 2.18039 1694.00000 14896.00000
37.30 40.00000 2.18989 1836.00000 14900.00000
37.32 26.00000 2.18989 1840.00000 15024.00000
37.34 26.00000 2.18989 1744.00000 14888.00000
37.36 36.00000 2.18989 1672.00000 15040.00000
37.38 46.00000 2.18989 1752.00000 14994.00000
37.40 44.00000 2.18989 1806.00000 15010.00000
37.42 52.00000 2.18039 1784.00000 15038.00000
37.44 58.00000 2.18039 1778.00000 15042.00000
37.46 44.00000 2.18039 1772.00000 15178.00000
37.48 28.00000 2.18989 1784.00000 15248.00000
37.50 22.00000 2.18989 1812.00000 15018.00000
37.52 22.00000 2.18989 1808.00000 14986.00000
37.54 32.00000 2.18989 1830.00000 14954.00000
37.56 24.00000 2.18989 1886.00000 15088.00000
37.58 26.00000 2.18989 1842.00000 15048.00000
37.60 32.00000 2.18989 1790.00000 15220.00000
37.62 36.00000 2.18989 1750.00000 15340.00000
37.64 40.00000 2.18989 1848.00000 15268.00000
37.66 42.00000 2.18989 1868.00000 15278.00000
37.68 44.00000 2.18039 1846.00000 15304.00000
37.70 40.00000 2.18039 1868.00000 15218.00000
37.72 42.00000 2.18039 1830.00000 15082.00000
37.74 42.00000 2.18989 1842.00000 14966.00000
37.76 50.00000 2.18989 1908.00000 15130.00000
37.78 48.00000 2.18039 1928.00000 15164.00000
37.80 32.00000 2.18039 1926.00000 15506.00000
37.82 18.00000 2.18039 1972.00000 15600.00000
37.84 40.00000 2.18989 2006.00000 15860.00000
37.86 56.00000 2.18989 2018.00000 15900.00000
37.88 44.00000 2.18039 1994.00000 15850.00000
37.90 40.00000 2.18039 2014.00000 15458.00000
37.92 44.00000 2.18039 1884.00000 15220.00000
37.94 28.00000 2.18989 1794.00000 15054.00000
37.96 26.00000 2.18989 1736.00000 15128.00000
37.98 46.00000 2.18039 1754.00000 15100.00000
38.00 56.00000 2.18039 1686.00000 15032.00000
38.02 56.00000 2.18039 1698.00000 15056.00000
38.04 54.00000 2.18989 1716.00000 14970.00000
38.06 40.00000 2.18989 1684.00000 15098.00000
38.08 42.00000 2.18039 1660.00000 15076.00000
38.10 40.00000 2.18039 1604.00000 15006.00000
38.12 32.00000 2.18039 1668.00000 15022.00000
38.14 22.00000 2.18989 1692.00000 14968.00000
38.16 28.00000 2.18989 1692.00000 14878.00000
38.18 28.00000 2.18039 1662.00000 14884.00000
38.20 18.00000 2.18039 1612.00000 15234.00000
38.22 26.00000 2.18039 1596.00000 15316.00000
38.24 20.00000 2.18989 1574.00000 15390.00000
38.26 24.00000 2.18039 1596.00000 15158.00000
38.28 28.00000 2.18039 1556.00000 15050.00000
38.30 40.00000 2.18039 1590.00000 14928.00000
38.32 38.00000 2.18989 1578.00000 15024.00000
38.34 24.00000 2.18989 1528.00000 14902.00000
38.36 22.00000 2.18989 1552.00000 14854.00000
38.38 44.00000 2.18989 1592.00000 14486.00000
38.40 40.00000 2.18039 1674.00000 14484.00000
38.42 38.00000 2.18039 1642.00000 14392.00000
38.44 34.00000 2.18039 1574.00000 14434.00000
38.46 28.00000 2.17090 1586.00000 14496.00000
38.48 32.00000 2.17090 1488.00000 14764.00000
38.50 32.00000 2.17090 1476.00000 14866.00000
38.52 34.00000 2.18989 1424.00000 14764.00000
38.54 28.00000 2.18039 1410.00000 14654.00000
38.56 26.00000 2.16141 1406.00000 14710.00000
38.58 28.00000 2.16141 1474.00000 14756.00000
38.60 26.00000 2.16141 1518.00000 14572.00000
38.62 36.00000 2.18039 1510.00000 14282.00000
38.64 36.00000 2.16141 1486.00000 14210.00000
38.66 24.00000 2.16141 1442.00000 14364.00000
38.68 14.00000 2.18039 1440.00000 14414.00000
38.70 24.00000 2.17090 1532.00000 14648.00000
38.72 24.00000 2.18039 1456.00000 14392.00000
