~Version
VERS. 2.0
WRAP. NO
~Well
STRT.M 0.27
STOP.M 59.83
STEP.M 0.02
NULL. -999.0
WELL. SYNTH_B
DATE. 2025-12-31
~Curve
DEPT.M
GR.CPS
CL.IN
LD.CPS
SD.CPS
~A
# ...
56.14 8.00000 0.95571 4828.00000 19336.00000
56.16 6.00000 0.95571 4932.00000 19160.00000
56.18 4.00000 0.95571 4954.00000 19020.00000
56.20 0.00000 0.95571 4804.00000 19130.00000
56.22 2.00000 0.95571 4816.00000 19106.00000
56.24 2.00000 0.95571 4996.00000 18986.00000
56.26 2.00000 0.95571 4958.00000 18986.00000
56.28 2.00000 0.95571 4826.00000 19106.00000
56.30 2.00000 0.95571 4860.00000 19094.00000
56.32 2.00000 0.95571 4982.00000 18912.00000
56.34 0.00000 0.94622 4886.00000 18792.00000
56.36 4.00000 0.95571 4856.00000 19158.00000
56.38 8.00000 0.95571 5048.00000 19062.00000
56.40 6.00000 0.95571 4978.00000 19002.00000
56.42 10.00000 0.95571 4692.00000 18946.00000
56.44 8.00000 0.95571 4856.00000 18930.00000
56.46 8.00000 0.94622 4990.00000 19032.00000
56.48 8.00000 0.95571 5008.00000 19082.00000
56.50 4.00000 0.93673 4836.00000 18990.00000
56.52 2.00000 0.95571 4848.00000 19036.00000
56.54 4.00000 0.94622 4766.00000 19006.00000
56.56 6.00000 0.94622 4688.00000 19200.00000
56.58 6.00000 0.93673 4724.00000 19410.00000
56.60 6.00000 0.92723 4744.00000 18978.00000
56.62 4.00000 0.92723 4886.00000 18656.00000
56.64 6.00000 0.94622 4796.00000 18714.00000
56.66 10.00000 0.93673 4928.00000 18756.00000
56.68 10.00000 0.90825 4884.00000 18712.00000
56.70 2.00000 0.90825 4818.00000 18198.00000
56.72 2.00000 0.88926 4788.00000 18084.00000
56.74 10.00000 0.89875 4760.00000 18050.00000
56.76 6.00000 0.89875 4666.00000 18564.00000
56.78 4.00000 0.88926 4656.00000 18680.00000
56.80 8.00000 0.88926 4856.00000 18786.00000
56.82 -999.00000 0.89875 4540.00000 19012.00000
56.84 -999.00000 0.88926 4598.00000 19152.00000
56.86 -999.00000 0.88926 4656.00000 19090.00000
56.88 -999.00000 0.88926 4570.00000 19158.00000
56.90 -999.00000 0.88926 4738.00000 19068.00000
56.92 -999.00000 0.88926 5038.00000 18816.00000
56.94 -999.00000 0.88926 4920.00000 18406.00000
56.96 -999.00000 0.88926 5010.00000 18268.00000
56.98 -999.00000 0.89875 4910.00000 18472.00000
57.00 -999.00000 0.90825 4608.00000 18400.00000
57.02 -999.00000 0.90825 4372.00000 18264.00000
57.04 -999.00000 0.90825 4296.00000 18486.00000
57.06 -999.00000 0.90825 4212.00000 18504.00000
57.08 -999.00000 0.89875 4094.00000 18584.00000
57.10 -999.00000 0.89875 4136.00000 18932.00000
57.12 -999.00000 0.89875 4096.00000 18268.00000
57.14 -999.00000 0.88926 4140.00000 17980.00000
57.16 -999.00000 0.89875 4098.00000 17800.00000
57.18 -999.00000 0.90825 4120.00000 17562.00000
57.20 -999.00000 0.90825 4310.00000 17510.00000
57.22 -999.00000 0.90825 4148.00000 17360.00000
57.24 -999.00000 0.89875 4060.00000 17616.00000
57.26 -999.00000 0.87976 3978.00000 18156.00000
57.28 -999.00000 0.87976 4108.00000 18426.00000
57.30 -999.00000 0.88926 4120.00000 18678.00000
57.32 -999.00000 0.90825 3998.00000 18708.00000
57.34 -999.00000 0.90825 4352.00000 18704.00000
57.36 -999.00000 0.89875 4638.00000 18912.00000
57.38 -999.00000 0.88926 4684.00000 18916.00000
57.40 -999.00000 0.88926 4746.00000 18894.00000
57.42 -999.00000 0.88926 4724.00000 18948.00000
57.44 -999.00000 0.87976 4826.00000 19066.00000
57.46 -999.00000 0.87976 4808.00000 19140.00000
57.48 -999.00000 0.88926 4710.00000 18954.00000
57.50 -999.00000 0.88926 4842.00000 18950.00000
57.52 -999.00000 0.87976 4990.00000 18828.00000
57.54 -999.00000 0.87976 4998.00000 18874.00000
57.56 -999.00000 0.87027 4946.00000 19286.00000
57.58 -999.00000 0.86078 4826.00000 19200.00000
57.60 -999.00000 0.86078 4902.00000 19038.00000
57.62 -999.00000 0.86078 4896.00000 19040.00000
57.64 -999.00000 0.86078 4806.00000 19038.00000
57.66 -999.00000 0.87027 4858.00000 18786.00000
57.68 -999.00000 0.87027 4924.00000 18760.00000
57.70 -999.00000 0.87027 4948.00000 18642.00000
57.72 -999.00000 0.87976 4982.00000 18682.00000
57.74 -999.00000 0.87027 5002.00000 18618.00000
57.76 -999.00000 0.87027 4968.00000 18776.00000
57.78 -999.00000 0.87976 4978.00000 19250.00000
57.80 -999.00000 0.88926 4984.00000 19518.00000
57.82 -999.00000 0.88926 5026.00000 19016.00000
57.84 -999.00000 0.88926 5078.00000 18968.00000
57.86 -999.00000 0.88926 5002.00000 18966.00000
57.88 -999.00000 0.87027 4972.00000 18846.00000
57.90 -999.00000 0.86078 5090.00000 18784.00000
57.92 -999.00000 0.83230 5026.00000 18782.00000
57.94 -999.00000 0.83230 4772.00000 18950.00000
57.96 -999.00000 0.87027 4794.00000 19080.00000
57.98 -999.00000 0.86078 4886.00000 18956.00000
58.00 -999.00000 0.79432 5036.00000 18746.00000
58.02 -999.00000 0.76584 4966.00000 18850.00000
58.04 -999.00000 0.76584 4958.00000 18878.00000
58.06 -999.00000 0.75635 4940.00000 19166.00000
58.08 -999.00000 0.74685 4942.00000 19196.00000
58.10 -999.00000 0.74685 5072.00000 18942.00000
58.12 -999.00000 0.76584 4906.00000 19004.00000
58.14 -999.00000 0.72787 4892.00000 19026.00000
58.16 -999.00000 0.72787 4978.00000 18954.00000
58.18 -999.00000 0.73736 5196.00000 18744.00000
58.20 -999.00000 0.74685 5070.00000 18668.00000
58.22 -999.00000 0.74685 4910.00000 18948.00000
58.24 -999.00000 0.75635 4892.00000 18814.00000
58.26 -999.00000 0.74685 4994.00000 18432.00000
58.28 -999.00000 0.73736 5006.00000 18510.00000
58.30 -999.00000 0.70888 4770.00000 18620.00000
58.32 -999.00000 -999.00000 4412.00000 18642.00000
58.34 -999.00000 -999.00000 4186.00000 18898.00000
58.36 -999.00000 -999.00000 3806.00000 18944.00000
58.38 -999.00000 -999.00000 3522.00000 18820.00000
58.40 -999.00000 -999.00000 3428.00000 18440.00000
58.42 -999.00000 -999.00000 3198.00000 18184.00000
58.44 -999.00000 -999.00000 2918.00000 17786.00000
58.46 -999.00000 -999.00000 2616.00000 16934.00000
58.48 -999.00000 -999.00000 2286.00000 16198.00000
58.50 -999.00000 -999.00000 2116.00000 15634.00000
58.52 -999.00000 -999.00000 1924.00000 15346.00000
58.54 -999.00000 -999.00000 1704.00000 15212.00000
58.56 -999.00000 -999.00000 1656.00000 14984.00000
58.58 -999.00000 -999.00000 1614.00000 15196.00000
58.60 -999.00000 -999.00000 1444.00000 15026.00000
58.62 -999.00000 -999.00000 1348.00000 14842.00000
58.64 -999.00000 -999.00000 1424.00000 14676.00000
58.66 -999.00000 -999.00000 1394.00000 14504.00000
58.68 -999.00000 -999.00000 1410.00000 14512.00000
58.70 -999.00000 -999.00000 1430.00000 14674.00000
58.72 -999.00000 -999.00000 1332.00000 14572.00000
58.74 -999.00000 -999.00000 1300.00000 14364.00000
58.76 -999.00000 -999.00000 1358.00000 14530.00000
58.78 -999.00000 -999.00000 1356.00000 14678.00000
58.80 -999.00000 -999.00000 1366.00000 14632.00000
58.82 -999.00000 -999.00000 1268.00000 14488.00000
58.84 -999.00000 -999.00000 1408.00000 14356.00000
58.86 -999.00000 -999.00000 -999.00000 14284.00000
58.88 -999.00000 -999.00000 -999.00000 14598.00000
58.90 -999.00000 -999.00000 -999.00000 14502.00000
58.92 -999.00000 -999.00000 -999.00000 14704.00000
