~Version
VERS. 2.0
WRAP. NO
~Well
STRT.M 0.82
STOP.M 59.52
STEP.M 0.02
NULL. -999.0
WELL. SYNTH_A
DATE. 2025-12-31
~Curve
DEPT.M
GR.CPS
CL.IN
LD.CPS
SD.CPS
~A
# ...
49.22 46.00000 2.12343 1530.00000 14942.00000
49.24 34.00000 2.12343 1464.00000 14860.00000
49.26 30.00000 2.11394 1504.00000 15032.00000
49.28 24.00000 2.12343 1512.00000 15074.00000
49.30 32.00000 2.11394 1450.00000 14708.00000
49.32 40.00000 2.11394 1402.00000 14518.00000
49.34 48.00000 2.10444 1406.00000 14302.00000
49.36 56.00000 2.11394 1436.00000 14378.00000
49.38 40.00000 2.11394 1364.00000 14480.00000
49.40 40.00000 2.12343 1330.00000 14592.00000
49.42 30.00000 2.11394 1290.00000 14260.00000
49.44 22.00000 2.10444 1286.00000 13894.00000
49.46 32.00000 2.09495 1312.00000 13774.00000
49.48 30.00000 2.11394 1272.00000 13736.00000
49.50 36.00000 2.12343 1308.00000 13582.00000
49.52 30.00000 2.13292 1302.00000 13450.00000
49.54 32.00000 2.14242 1286.00000 13218.00000
49.56 32.00000 2.14242 1306.00000 13504.00000
49.58 34.00000 2.11394 1244.00000 13938.00000
49.60 32.00000 2.11394 1218.00000 13980.00000
49.62 50.00000 2.11394 1214.00000 13858.00000
49.64 64.00000 2.12343 1230.00000 14082.00000
49.66 44.00000 2.11394 1336.00000 14254.00000
49.68 30.00000 2.11394 1494.00000 14344.00000
49.70 44.00000 2.10444 1520.00000 14452.00000
49.72 32.00000 2.10444 1494.00000 14676.00000
49.74 38.00000 2.10444 1500.00000 14538.00000
49.76 42.00000 2.12343 1514.00000 14608.00000
49.78 28.00000 2.12343 1516.00000 14966.00000
49.80 20.00000 2.11394 1558.00000 15228.00000
49.82 18.00000 2.10444 1512.00000 15340.00000
49.84 14.00000 2.10444 1516.00000 15506.00000
49.86 28.00000 2.09495 1552.00000 15328.00000
49.88 30.00000 2.08546 1622.00000 14916.00000
49.90 32.00000 2.08546 1598.00000 14658.00000
49.92 38.00000 2.08546 1602.00000 14614.00000
49.94 36.00000 2.09495 1586.00000 14506.00000
49.96 42.00000 2.09495 1598.00000 14656.00000
49.98 38.00000 2.09495 1592.00000 14590.00000
50.00 32.00000 2.09495 1564.00000 14534.00000
50.02 12.00000 2.09495 1522.00000 14554.00000
50.04 38.00000 2.09495 1438.00000 14658.00000
50.06 44.00000 2.09495 1430.00000 14888.00000
50.08 26.00000 2.10444 1518.00000 14678.00000
50.10 32.00000 2.10444 1558.00000 14720.00000
50.12 20.00000 2.09495 1576.00000 14816.00000
50.14 26.00000 2.09495 1606.00000 14754.00000
50.16 36.00000 2.09495 1588.00000 14662.00000
50.18 32.00000 2.09495 1534.00000 14932.00000
50.20 32.00000 2.09495 1576.00000 15134.00000
50.22 24.00000 2.09495 1610.00000 15212.00000
50.24 28.00000 2.09495 1598.00000 14992.00000
50.26 32.00000 2.08546 1610.00000 14976.00000
50.28 32.00000 2.06647 1620.00000 15074.00000
50.30 32.00000 2.06647 1652.00000 15084.00000
50.32 34.00000 2.08546 1698.00000 15232.00000
50.34 40.00000 2.08546 1674.00000 15388.00000
50.36 46.00000 2.08546 1660.00000 15666.00000
50.38 50.00000 2.07596 1634.00000 15306.00000
50.40 54.00000 2.08546 1584.00000 15194.00000
50.42 52.00000 2.08546 1590.00000 15044.00000
50.44 42.00000 2.08546 1624.00000 15104.00000
50.46 38.00000 2.09495 1712.00000 14958.00000
50.48 38.00000 2.09495 1706.00000 14832.00000
50.50 38.00000 2.09495 1738.00000 14574.00000
50.52 42.00000 2.09495 1798.00000 14478.00000
50.54 42.00000 2.09495 1938.00000 14520.00000
50.56 38.00000 2.09495 1922.00000 14800.00000
50.58 36.00000 2.09495 1978.00000 15022.00000
50.60 38.00000 2.08546 1986.00000 15376.00000
50.62 58.00000 2.07596 1936.00000 15824.00000
50.64 62.00000 2.06647 2010.00000 16764.00000
50.66 64.00000 2.07596 2226.00000 17558.00000
50.68 36.00000 2.06647 2378.00000 18104.00000
50.70 22.00000 2.07596 2604.00000 18532.00000
50.72 16.00000 2.07596 2650.00000 18556.00000
50.74 14.00000 2.06647 2862.00000 18360.00000
50.76 20.00000 2.04748 2988.00000 18038.00000
50.78 22.00000 2.03799 3238.00000 17752.00000
50.80 20.00000 2.02849 3378.00000 17202.00000
50.82 26.00000 1.99052 3534.00000 17006.00000
50.84 28.00000 1.95255 3762.00000 16822.00000
50.86 22.00000 1.94305 3972.00000 17076.00000
50.88 14.00000 1.95255 3928.00000 18038.00000
50.90 12.00000 1.95255 4040.00000 18206.00000
50.92 20.00000 1.95255 4094.00000 18342.00000
50.94 20.00000 1.95255 4252.00000 18372.00000
50.96 10.00000 1.95255 4348.00000 18652.00000
50.98 2.00000 1.94305 4414.00000 19012.00000
51.00 4.00000 1.94305 4608.00000 19158.00000
51.02 6.00000 1.94305 4802.00000 19138.00000
51.04 4.00000 1.94305 4752.00000 18746.00000
51.06 4.00000 1.93356 4686.00000 18658.00000
51.08 8.00000 1.92406 4774.00000 18846.00000
51.10 8.00000 1.91457 5008.00000 18924.00000
51.12 4.00000 1.92406 4930.00000 18980.00000
51.14 4.00000 1.94305 4920.00000 18584.00000
51.16 4.00000 1.95255 4962.00000 18452.00000
51.18 2.00000 1.94305 4876.00000 18806.00000
51.20 0.00000 1.92406 4788.00000 18742.00000
51.22 2.00000 1.92406 4876.00000 18440.00000
51.24 2.00000 1.92406 4890.00000 18440.00000
51.26 4.00000 1.90508 4698.00000 18618.00000
51.28 4.00000 1.92406 4648.00000 18904.00000
51.30 4.00000 1.94305 4638.00000 18804.00000
51.32 2.00000 1.92406 4738.00000 18712.00000
51.34 2.00000 1.92406 4726.00000 18724.00000
51.36 6.00000 1.92406 4644.00000 19042.00000
51.38 4.00000 1.91457 4592.00000 19154.00000
51.40 2.00000 1.90508 4730.00000 18712.00000
51.42 4.00000 1.90508 4894.00000 18750.00000
51.44 6.00000 1.92406 4800.00000 18828.00000
51.46 2.00000 1.95255 4940.00000 18642.00000
51.48 2.00000 1.94305 4864.00000 18806.00000
51.50 6.00000 1.92406 4816.00000 18766.00000
51.52 10.00000 1.90508 4738.00000 18494.00000
51.54 12.00000 1.93356 4856.00000 18574.00000
51.56 8.00000 1.95255 4820.00000 18696.00000
51.58 4.00000 1.93356 4822.00000 18872.00000
51.60 10.00000 1.93356 4874.00000 18912.00000
51.62 16.00000 1.94305 4934.00000 19004.00000
51.64 12.00000 1.93356 4904.00000 19042.00000
51.66 14.00000 1.89558 4752.00000 19178.00000
51.68 8.00000 1.89558 4794.00000 19192.00000
51.70 4.00000 1.89558 4874.00000 18940.00000
51.72 6.00000 1.90508 4790.00000 18926.00000
51.74 6.00000 1.90508 4814.00000 18810.00000
51.76 6.00000 1.89558 4852.00000 18902.00000
51.78 8.00000 1.88609 4848.00000 18980.00000
51.80 10.00000 1.89558 4730.00000 19014.00000
51.82 10.00000 1.89558 4792.00000 19042.00000
51.84 6.00000 1.90508 4734.00000 18996.00000
51.86 8.00000 1.88609 4718.00000 18940.00000
51.88 10.00000 1.88609 4720.00000 18896.00000
51.90 14.00000 1.88609 4790.00000 18862.00000
51.92 6.00000 1.88609 4702.00000 18912.00000
51.94 2.00000 1.89558 4754.00000 18762.00000
51.96 8.00000 1.90508 4780.00000 18528.00000
51.98 6.00000 1.90508 4954.00000 18708.00000
52.00 4.00000 1.90508 4954.00000 18904.00000
52.02 0.00000 1.88609 4824.00000 18920.00000
52.04 8.00000 1.86710 4808.00000 18678.00000
52.06 12.00000 1.86710 4778.00000 18810.00000
52.08 6.00000 1.88609 4662.00000 18796.00000
52.10 6.00000 1.89558 4750.00000 18878.00000
52.12 6.00000 1.88609 4770.00000 18746.00000
52.14 4.00000 1.89558 4800.00000 18456.00000
52.16 8.00000 1.89558 4826.00000 18478.00000
52.18 6.00000 1.89558 4742.00000 18460.00000
52.20 2.00000 1.89558 4720.00000 18390.00000
52.22 6.00000 1.89558 4838.00000 18452.00000
52.24 6.00000 1.90508 4892.00000 18546.00000
52.26 2.00000 1.89558 5020.00000 18552.00000
52.28 4.00000 1.87660 5022.00000 18938.00000
52.30 10.00000 1.88609 4896.00000 19054.00000
52.32 8.00000 1.88609 4708.00000 18940.00000
52.34 6.00000 1.88609 4730.00000 18894.00000
52.36 6.00000 1.90508 4692.00000 18770.00000
52.38 6.00000 1.90508 4700.00000 18654.00000
52.40 8.00000 1.90508 4846.00000 18520.00000
52.42 10.00000 1.89558 4896.00000 18670.00000
52.44 10.00000 1.88609 4750.00000 18788.00000
52.46 10.00000 1.86710 4860.00000 18742.00000
52.48 8.00000 1.86710 4990.00000 18698.00000
52.50 10.00000 1.86710 4998.00000 19066.00000
52.52 14.00000 1.86710 4854.00000 19102.00000
52.54 18.00000 1.87660 4758.00000 19130.00000
52.56 14.00000 1.87660 4638.00000 18938.00000
52.58 10.00000 1.86710 4416.00000 18890.00000
52.60 14.00000 1.87660 4330.00000 19140.00000
52.62 26.00000 1.88609 4220.00000 19146.00000
52.64 26.00000 1.88609 4246.00000 18724.00000
52.66 26.00000 1.89558 4266.00000 18282.00000
52.68 32.00000 1.90508 4208.00000 18304.00000
52.70 34.00000 1.90508 4264.00000 18092.00000
52.72 32.00000 1.90508 4224.00000 17830.00000
