~Version
VERS. 2.0
WRAP. NO
~Well
STRT.M 0.27
STOP.M 59.83
STEP.M 0.02
NULL. -999.0
WELL. SYNTH_B
DATE. 2025-12-31
~Curve
DEPT.M
GR.CPS
CL.IN
LD.CPS
SD.CPS
~A
# ...
49.16 20.00000 1.23103 1538.00000 14652.00000
49.18 24.00000 1.22154 1592.00000 14754.00000
49.20 24.00000 1.22154 1588.00000 14850.00000
49.22 20.00000 1.23103 1634.00000 14900.00000
49.24 16.00000 1.23103 1682.00000 14864.00000
49.26 14.00000 1.24052 1652.00000 14822.00000
49.28 24.00000 1.23103 1572.00000 14720.00000
49.30 36.00000 1.23103 1622.00000 14908.00000
49.32 32.00000 1.24052 1544.00000 14806.00000
49.34 20.00000 1.23103 1556.00000 14968.00000
49.36 12.00000 1.22154 1432.00000 14782.00000
49.38 20.00000 1.22154 1482.00000 14750.00000
49.40 28.00000 1.23103 1538.00000 14540.00000
49.42 22.00000 1.23103 1558.00000 14682.00000
49.44 18.00000 1.22154 1592.00000 14704.00000
49.46 18.00000 1.23103 1624.00000 14966.00000
49.48 26.00000 1.24052 1606.00000 14820.00000
49.50 24.00000 1.23103 1524.00000 14734.00000
49.52 12.00000 1.23103 1510.00000 14666.00000
49.54 16.00000 1.22154 1448.00000 14502.00000
49.56 22.00000 1.22154 1530.00000 14316.00000
49.58 26.00000 1.22154 1570.00000 14020.00000
49.60 44.00000 1.23103 1568.00000 14192.00000
49.62 52.00000 1.23103 1558.00000 14160.00000
49.64 44.00000 1.23103 1560.00000 14336.00000
49.66 30.00000 1.23103 1566.00000 14318.00000
49.68 22.00000 1.24052 1606.00000 14386.00000
49.70 16.00000 1.24052 1658.00000 14698.00000
49.72 16.00000 1.23103 1662.00000 14724.00000
49.74 20.00000 1.22154 1644.00000 14928.00000
49.76 16.00000 1.22154 1652.00000 14980.00000
49.78 18.00000 1.24052 1604.00000 15252.00000
49.80 22.00000 1.24052 1662.00000 15334.00000
49.82 30.00000 1.24052 1600.00000 15604.00000
49.84 24.00000 1.24052 1590.00000 15206.00000
49.86 12.00000 1.24052 1526.00000 14654.00000
49.88 18.00000 1.24052 1542.00000 14440.00000
49.90 26.00000 1.23103 1520.00000 14380.00000
49.92 22.00000 1.22154 1514.00000 14380.00000
49.94 20.00000 1.22154 1492.00000 14330.00000
49.96 20.00000 1.22154 1566.00000 14450.00000
49.98 24.00000 1.22154 1576.00000 14692.00000
50.00 28.00000 1.22154 1588.00000 14896.00000
50.02 24.00000 1.22154 1652.00000 15194.00000
50.04 22.00000 1.22154 1668.00000 15338.00000
50.06 22.00000 1.21204 1650.00000 15358.00000
50.08 16.00000 1.22154 1640.00000 15410.00000
50.10 18.00000 1.22154 1596.00000 15192.00000
50.12 22.00000 1.20255 1524.00000 15108.00000
50.14 22.00000 1.18356 1574.00000 15082.00000
50.16 22.00000 1.20255 1578.00000 15026.00000
50.18 28.00000 1.23103 1586.00000 14846.00000
50.20 24.00000 1.24052 1546.00000 14910.00000
50.22 30.00000 1.24052 1558.00000 14852.00000
50.24 24.00000 1.22154 1540.00000 14734.00000
50.26 36.00000 1.19305 1488.00000 14682.00000
50.28 38.00000 1.20255 1478.00000 14918.00000
50.30 38.00000 1.21204 1418.00000 15210.00000
50.32 36.00000 1.20255 1502.00000 15318.00000
50.34 40.00000 1.19305 1518.00000 15270.00000
50.36 40.00000 1.19305 1542.00000 14974.00000
50.38 34.00000 1.21204 1508.00000 14848.00000
50.40 28.00000 1.23103 1452.00000 14864.00000
50.42 22.00000 1.24052 1478.00000 14952.00000
50.44 28.00000 1.24052 1450.00000 14948.00000
50.46 32.00000 1.21204 1414.00000 14892.00000
50.48 30.00000 1.20255 1374.00000 14926.00000
50.50 24.00000 1.19305 1388.00000 14860.00000
50.52 26.00000 1.21204 1402.00000 14744.00000
50.54 16.00000 1.22154 1458.00000 14576.00000
50.56 18.00000 1.22154 1556.00000 14426.00000
50.58 18.00000 1.22154 1564.00000 14250.00000
50.60 20.00000 1.21204 1512.00000 14082.00000
50.62 20.00000 1.22154 1518.00000 13984.00000
50.64 18.00000 1.20255 1492.00000 13902.00000
50.66 18.00000 1.20255 1452.00000 14262.00000
50.68 24.00000 1.18356 1526.00000 14608.00000
50.70 32.00000 1.19305 1606.00000 14822.00000
50.72 34.00000 1.19305 1522.00000 14700.00000
50.74 30.00000 1.19305 1512.00000 14572.00000
50.76 26.00000 1.19305 1474.00000 14544.00000
50.78 24.00000 1.19305 1510.00000 14570.00000
50.80 28.00000 1.19305 1368.00000 14576.00000
50.82 28.00000 1.19305 1330.00000 14560.00000
50.84 22.00000 1.19305 1286.00000 14128.00000
50.86 24.00000 1.19305 1326.00000 13962.00000
50.88 26.00000 1.19305 1252.00000 13794.00000
50.90 32.00000 1.19305 1214.00000 13414.00000
50.92 28.00000 1.18356 1216.00000 12964.00000
50.94 34.00000 1.18356 1196.00000 12644.00000
50.96 18.00000 1.18356 1198.00000 12460.00000
50.98 26.00000 1.18356 1110.00000 12624.00000
51.00 18.00000 1.18356 1040.00000 12966.00000
51.02 10.00000 1.19305 1058.00000 13280.00000
51.04 14.00000 1.19305 1056.00000 12994.00000
51.06 14.00000 1.18356 1156.00000 12582.00000
51.08 14.00000 1.18356 1154.00000 12494.00000
51.10 24.00000 1.18356 1158.00000 12478.00000
51.12 22.00000 1.19305 1174.00000 12760.00000
51.14 24.00000 1.19305 1186.00000 13226.00000
51.16 16.00000 1.18356 1174.00000 13804.00000
51.18 14.00000 1.18356 1200.00000 14094.00000
51.20 24.00000 1.18356 1202.00000 14270.00000
51.22 28.00000 1.18356 1230.00000 14250.00000
51.24 22.00000 1.18356 1248.00000 14380.00000
51.26 22.00000 1.17407 1334.00000 14450.00000
51.28 26.00000 1.18356 1322.00000 14524.00000
51.30 32.00000 1.18356 1338.00000 14526.00000
51.32 22.00000 1.18356 1266.00000 14488.00000
51.34 18.00000 1.19305 1326.00000 14426.00000
51.36 14.00000 1.19305 1402.00000 14516.00000
51.38 22.00000 1.18356 1446.00000 14628.00000
51.40 30.00000 1.18356 1392.00000 14740.00000
51.42 30.00000 1.18356 1364.00000 14680.00000
51.44 30.00000 1.18356 1302.00000 14620.00000
51.46 24.00000 1.18356 1344.00000 14740.00000
51.48 24.00000 1.18356 1410.00000 14680.00000
51.50 24.00000 1.18356 1424.00000 14718.00000
51.52 28.00000 1.17407 1390.00000 14572.00000
51.54 34.00000 1.18356 1418.00000 14400.00000
51.56 18.00000 1.18356 1338.00000 14052.00000
51.58 14.00000 1.19305 1260.00000 13814.00000
51.60 16.00000 1.18356 1276.00000 13570.00000
51.62 8.00000 1.18356 1222.00000 13536.00000
51.64 22.00000 1.16457 1220.00000 13444.00000
51.66 34.00000 1.16457 1194.00000 13512.00000
51.68 36.00000 1.17407 1144.00000 13600.00000
51.70 30.00000 1.20255 1102.00000 13640.00000
51.72 20.00000 1.19305 1062.00000 13594.00000
51.74 18.00000 1.18356 1112.00000 13350.00000
51.76 22.00000 1.16457 1142.00000 12908.00000
51.78 20.00000 1.18356 1152.00000 12300.00000
51.80 20.00000 1.17407 1150.00000 11986.00000
51.82 26.00000 1.17407 1188.00000 12160.00000
51.84 22.00000 1.18356 1158.00000 12670.00000
51.86 24.00000 1.19305 1194.00000 13108.00000
51.88 20.00000 1.18356 1164.00000 13368.00000
51.90 18.00000 1.18356 1186.00000 13778.00000
51.92 20.00000 1.17407 1262.00000 13936.00000
51.94 24.00000 1.17407 1266.00000 13966.00000
51.96 16.00000 1.16457 1260.00000 13788.00000
51.98 12.00000 1.16457 1290.00000 13690.00000
52.00 20.00000 1.16457 1306.00000 13888.00000
52.02 30.00000 1.17407 1260.00000 14082.00000
52.04 28.00000 1.18356 1350.00000 14142.00000
52.06 22.00000 1.17407 1340.00000 14214.00000
52.08 24.00000 1.17407 1296.00000 14100.00000
52.10 38.00000 1.15508 1280.00000 13872.00000
52.12 28.00000 1.15508 1340.00000 13842.00000
52.14 24.00000 1.17407 1324.00000 14272.00000
52.16 34.00000 1.16457 1290.00000 14308.00000
52.18 22.00000 1.16457 1246.00000 14360.00000
52.20 24.00000 1.15508 1276.00000 14372.00000
52.22 28.00000 1.14559 1410.00000 14248.00000
52.24 24.00000 1.14559 1478.00000 14336.00000
52.26 14.00000 1.14559 1520.00000 14574.00000
52.28 8.00000 1.15508 1556.00000 14518.00000
52.30 12.00000 1.15508 1494.00000 14514.00000
52.32 18.00000 1.15508 1480.00000 14702.00000
52.34 22.00000 1.15508 1464.00000 14702.00000
52.36 20.00000 1.16457 1440.00000 14556.00000
52.38 22.00000 1.15508 1418.00000 14406.00000
52.40 16.00000 1.15508 1440.00000 14606.00000
52.42 22.00000 1.14559 1432.00000 15040.00000
52.44 18.00000 1.15508 1410.00000 15068.00000
52.46 36.00000 1.15508 1430.00000 14950.00000
52.48 34.00000 1.14559 1356.00000 14596.00000
52.50 26.00000 1.15508 1356.00000 14410.00000
52.52 26.00000 1.15508 1346.00000 13922.00000
52.54 20.00000 1.14559 1354.00000 13978.00000
52.56 20.00000 1.14559 1386.00000 13802.00000
52.58 24.00000 1.14559 1362.00000 13756.00000
52.60 28.00000 1.14559 1376.00000 13628.00000
52.62 28.00000 1.14559 1348.00000 13664.00000
