~Version
VERS. 2.0
WRAP. NO
~Well
STRT.M 0.27
STOP.M 59.83
STEP.M 0.02
NULL. -999.0
WELL. SYNTH_B
DATE. 2025-12-31
~Curve
DEPT.M
GR.CPS
CL.IN
LD.CPS
SD.CPS
~A
# ...
14.34 42.00000 1.52533 1886.00000 15926.00000
14.36 32.00000 1.52533 1856.00000 15748.00000
14.38 26.00000 1.52533 1858.00000 15294.00000
14.40 20.00000 1.51584 1910.00000 15114.00000
14.42 22.00000 1.51584 1890.00000 15164.00000
14.44 22.00000 1.51584 1780.00000 15394.00000
14.46 24.00000 1.52533 1798.00000 15326.00000
14.48 24.00000 1.52533 1826.00000 15212.00000
14.50 34.00000 1.52533 1848.00000 15266.00000
14.52 46.00000 1.52533 1798.00000 15162.00000
14.54 40.00000 1.52533 1748.00000 15208.00000
14.56 28.00000 1.51584 1824.00000 15478.00000
14.58 26.00000 1.51584 1802.00000 15518.00000
14.60 40.00000 1.51584 1876.00000 15504.00000
14.62 44.00000 1.52533 1754.00000 15404.00000
14.64 40.00000 1.52533 1788.00000 15704.00000
14.66 38.00000 1.52533 1776.00000 15654.00000
14.68 36.00000 1.52533 1878.00000 15466.00000
14.70 34.00000 1.52533 1882.00000 15402.00000
14.72 30.00000 1.52533 1898.00000 15394.00000
14.74 28.00000 1.52533 1844.00000 15342.00000
14.76 28.00000 1.50634 1882.00000 15258.00000
14.78 26.00000 1.50634 1884.00000 15198.00000
14.80 36.00000 1.50634 1904.00000 15274.00000
14.82 42.00000 1.52533 1940.00000 15332.00000
14.84 42.00000 1.52533 1946.00000 15432.00000
14.86 30.00000 1.52533 2082.00000 15434.00000
14.88 22.00000 1.52533 2142.00000 15224.00000
14.90 18.00000 1.52533 2304.00000 15284.00000
14.92 14.00000 1.52533 2368.00000 15410.00000
14.94 18.00000 1.51584 2452.00000 15762.00000
14.96 20.00000 1.51584 2446.00000 16370.00000
14.98 28.00000 1.51584 2410.00000 16862.00000
15.00 32.00000 1.52533 2374.00000 17986.00000
15.02 34.00000 1.52533 2366.00000 18928.00000
15.04 22.00000 1.52533 2360.00000 19256.00000
15.06 26.00000 1.50634 2336.00000 18720.00000
15.08 34.00000 1.48736 2404.00000 18404.00000
15.10 36.00000 1.48736 2450.00000 17756.00000
15.12 30.00000 1.50634 2394.00000 16822.00000
15.14 30.00000 1.51584 2350.00000 15934.00000
15.16 32.00000 1.50634 2254.00000 15322.00000
15.18 30.00000 1.50634 2242.00000 14622.00000
15.20 28.00000 1.51584 2168.00000 14578.00000
15.22 26.00000 1.52533 2004.00000 14708.00000
15.24 24.00000 1.50634 1848.00000 14846.00000
15.26 26.00000 1.50634 1722.00000 14800.00000
15.28 24.00000 1.49685 1716.00000 14950.00000
15.30 20.00000 1.50634 1806.00000 14852.00000
15.32 22.00000 1.49685 1772.00000 14804.00000
15.34 26.00000 1.50634 1784.00000 14804.00000
15.36 34.00000 1.50634 1694.00000 14604.00000
15.38 36.00000 1.49685 1694.00000 14762.00000
15.40 44.00000 1.50634 1678.00000 14972.00000
15.42 42.00000 1.50634 1694.00000 15174.00000
15.44 44.00000 1.50634 1688.00000 14964.00000
15.46 46.00000 1.50634 1656.00000 14792.00000
15.48 34.00000 1.50634 1624.00000 14476.00000
15.50 24.00000 1.50634 1624.00000 14466.00000
15.52 24.00000 1.50634 1664.00000 14394.00000
15.54 40.00000 1.50634 1702.00000 14564.00000
15.56 46.00000 1.50634 1670.00000 14644.00000
15.58 30.00000 1.51584 1690.00000 14922.00000
15.60 26.00000 1.51584 1662.00000 15136.00000
15.62 26.00000 1.48736 1666.00000 15174.00000
15.64 54.00000 1.48736 1670.00000 15094.00000
15.66 54.00000 1.50634 1660.00000 15030.00000
15.68 56.00000 1.50634 1694.00000 14998.00000
15.70 42.00000 1.48736 1670.00000 14868.00000
15.72 50.00000 1.50634 1656.00000 14902.00000
15.74 50.00000 1.51584 1710.00000 14750.00000
15.76 44.00000 1.50634 1722.00000 14810.00000
15.78 44.00000 1.50634 1710.00000 14626.00000
15.80 44.00000 1.49685 1748.00000 14684.00000
15.82 46.00000 1.49685 1750.00000 14616.00000
15.84 40.00000 1.49685 1778.00000 14770.00000
15.86 44.00000 1.49685 1762.00000 14790.00000
15.88 50.00000 1.50634 1838.00000 15066.00000
15.90 46.00000 1.49685 1822.00000 15138.00000
15.92 42.00000 1.50634 1836.00000 15156.00000
15.94 42.00000 1.50634 1764.00000 14992.00000
15.96 50.00000 1.49685 1816.00000 15288.00000
15.98 44.00000 1.50634 1778.00000 15480.00000
16.00 38.00000 1.49685 1784.00000 15408.00000
16.02 30.00000 1.50634 1832.00000 15030.00000
16.04 28.00000 1.49685 1764.00000 14872.00000
16.06 38.00000 1.50634 1810.00000 15062.00000
16.08 42.00000 1.49685 1726.00000 15142.00000
16.10 48.00000 1.50634 1752.00000 15106.00000
16.12 46.00000 1.50634 1770.00000 15068.00000
16.14 36.00000 1.50634 1742.00000 15058.00000
16.16 36.00000 1.49685 1706.00000 15222.00000
16.18 30.00000 1.49685 1744.00000 15350.00000
16.20 38.00000 1.50634 1788.00000 15244.00000
16.22 32.00000 1.51584 1764.00000 14894.00000
16.24 38.00000 1.49685 1680.00000 14810.00000
16.26 34.00000 1.48736 1728.00000 14730.00000
16.28 48.00000 1.49685 1794.00000 14706.00000
16.30 50.00000 1.51584 1810.00000 14608.00000
16.32 48.00000 1.49685 1786.00000 14626.00000
16.34 30.00000 1.48736 1718.00000 14792.00000
16.36 26.00000 1.48736 1704.00000 14798.00000
16.38 26.00000 1.48736 1784.00000 14848.00000
16.40 28.00000 1.49685 1790.00000 14928.00000
16.42 24.00000 1.49685 1756.00000 15026.00000
16.44 30.00000 1.50634 1754.00000 15074.00000
16.46 36.00000 1.50634 1738.00000 15202.00000
16.48 34.00000 1.49685 1830.00000 15138.00000
16.50 34.00000 1.50634 1818.00000 15140.00000
16.52 36.00000 1.50634 1818.00000 15026.00000
16.54 32.00000 1.50634 1796.00000 15250.00000
16.56 26.00000 1.49685 1710.00000 15174.00000
16.58 20.00000 1.50634 1744.00000 15260.00000
16.60 26.00000 1.50634 1682.00000 15092.00000
16.62 20.00000 1.50634 1742.00000 15168.00000
16.64 24.00000 1.50634 1718.00000 15136.00000
16.66 16.00000 1.50634 1712.00000 15162.00000
16.68 24.00000 1.49685 1776.00000 15262.00000
16.70 30.00000 1.50634 1804.00000 15508.00000
16.72 28.00000 1.49685 1774.00000 15514.00000
16.74 36.00000 1.50634 1752.00000 15308.00000
16.76 34.00000 1.50634 1748.00000 15062.00000
16.78 28.00000 1.49685 1772.00000 15150.00000
16.80 22.00000 1.49685 1816.00000 15212.00000
16.82 18.00000 1.49685 1766.00000 15342.00000
16.84 24.00000 1.49685 1824.00000 15152.00000
16.86 24.00000 1.50634 1850.00000 15202.00000
16.88 36.00000 1.50634 1818.00000 15234.00000
16.90 30.00000 1.50634 1832.00000 15162.00000
16.92 38.00000 1.51584 1768.00000 14984.00000
16.94 32.00000 1.50634 1792.00000 14942.00000
16.96 30.00000 1.51584 1684.00000 14904.00000
16.98 36.00000 1.50634 1696.00000 14962.00000
17.00 28.00000 1.50634 1718.00000 14904.00000
17.02 28.00000 1.50634 1724.00000 15126.00000
17.04 34.00000 1.50634 1706.00000 15100.00000
17.06 38.00000 1.51584 1746.00000 15174.00000
17.08 40.00000 1.49685 1700.00000 15168.00000
17.10 32.00000 1.50634 1658.00000 15068.00000
17.12 42.00000 1.48736 1692.00000 14868.00000
17.14 38.00000 1.49685 1706.00000 15048.00000
17.16 34.00000 1.50634 1694.00000 15122.00000
17.18 24.00000 1.49685 1700.00000 15144.00000
17.20 34.00000 1.50634 1728.00000 15230.00000
17.22 38.00000 1.49685 1712.00000 14994.00000
17.24 46.00000 1.50634 1750.00000 14932.00000
17.26 34.00000 1.50634 1618.00000 14580.00000
17.28 26.00000 1.49685 1604.00000 14926.00000
17.30 34.00000 1.49685 1572.00000 15086.00000
17.32 44.00000 1.50634 1620.00000 15080.00000
17.34 40.00000 1.50634 1648.00000 14932.00000
17.36 40.00000 1.51584 1576.00000 14664.00000
17.38 36.00000 1.50634 1608.00000 14424.00000
17.40 32.00000 1.50634 1586.00000 14266.00000
17.42 26.00000 1.51584 1688.00000 14454.00000
17.44 26.00000 1.49685 1608.00000 14434.00000
17.46 28.00000 1.50634 1604.00000 14506.00000
17.48 30.00000 1.48736 1588.00000 14494.00000
17.50 24.00000 1.49685 1624.00000 14568.00000
17.52 22.00000 1.49685 1646.00000 14628.00000
17.54 16.00000 1.49685 1640.00000 14724.00000
17.56 22.00000 1.50634 1684.00000 14938.00000
17.58 26.00000 1.49685 1694.00000 14964.00000
17.60 30.00000 1.51584 1700.00000 15078.00000
17.62 34.00000 1.50634 1664.00000 15294.00000
17.64 32.00000 1.49685 1682.00000 15372.00000
17.66 36.00000 1.49685 1804.00000 15544.00000
17.68 30.00000 1.48736 1754.00000 15540.00000
17.70 28.00000 1.49685 1730.00000 15618.00000
17.72 14.00000 1.49685 1706.00000 15432.00000
17.74 22.00000 1.50634 1736.00000 15324.00000
17.76 26.00000 1.50634 1744.00000 15176.00000
17.78 32.00000 1.49685 1748.00000 14978.00000
17.80 30.00000 1.50634 1766.00000 14918.00000
