~Version
VERS. 2.0
WRAP. NO
~Well
STRT.M 0.82
STOP.M 59.52
STEP.M 0.02
NULL. -999.0
WELL. SYNTH_A
DATE. 2025-12-31
~Curve
DEPT.M
GR.CPS
CL.IN
LD.CPS
SD.CPS
~A
# ...
10.86 26.00000 2.24685 1698.00000 14658.00000
10.88 32.00000 2.26584 1776.00000 14658.00000
10.90 36.00000 2.25634 1774.00000 14930.00000
10.92 48.00000 2.26584 1768.00000 15132.00000
10.94 50.00000 2.25634 1758.00000 15246.00000
10.96 50.00000 2.26584 1722.00000 15394.00000
10.98 40.00000 2.25634 1654.00000 15130.00000
11.00 40.00000 2.26584 1680.00000 15076.00000
11.02 40.00000 2.25634 1704.00000 15010.00000
11.04 38.00000 2.26584 1766.00000 15040.00000
11.06 48.00000 2.26584 1798.00000 15026.00000
11.08 60.00000 2.25634 1762.00000 14978.00000
11.10 58.00000 2.26584 1742.00000 15060.00000
11.12 42.00000 2.25634 1692.00000 15152.00000
11.14 30.00000 2.25634 1768.00000 15264.00000
11.16 32.00000 2.25634 1770.00000 15134.00000
11.18 34.00000 2.25634 1714.00000 15050.00000
11.20 34.00000 2.25634 1686.00000 14956.00000
11.22 34.00000 2.25634 1720.00000 14978.00000
11.24 36.00000 2.26584 1822.00000 15098.00000
11.26 44.00000 2.27533 1948.00000 15016.00000
11.28 42.00000 2.27533 1850.00000 15084.00000
11.30 42.00000 2.26584 1854.00000 15040.00000
11.32 44.00000 2.26584 1820.00000 15486.00000
11.34 44.00000 2.24685 1844.00000 15588.00000
11.36 32.00000 2.25634 1832.00000 15558.00000
11.38 24.00000 2.26584 1842.00000 15502.00000
11.40 26.00000 2.26584 1948.00000 15446.00000
11.42 34.00000 2.25634 2012.00000 15504.00000
11.44 38.00000 2.26584 2026.00000 15338.00000
11.46 34.00000 2.27533 1848.00000 15224.00000
11.48 30.00000 2.27533 1822.00000 15334.00000
11.50 38.00000 2.25634 1766.00000 15266.00000
11.52 44.00000 2.24685 1788.00000 15196.00000
11.54 50.00000 2.23735 1752.00000 14788.00000
11.56 58.00000 2.24685 1772.00000 14702.00000
11.58 56.00000 2.25634 1724.00000 14584.00000
11.60 44.00000 2.25634 1652.00000 14634.00000
11.62 26.00000 2.25634 1652.00000 14542.00000
11.64 20.00000 2.26584 1626.00000 14788.00000
11.66 20.00000 2.26584 1680.00000 14788.00000
11.68 30.00000 2.25634 1686.00000 14992.00000
11.70 36.00000 2.24685 1720.00000 14968.00000
11.72 46.00000 2.23735 1694.00000 14960.00000
11.74 38.00000 2.24685 1600.00000 14866.00000
11.76 36.00000 2.25634 1622.00000 14600.00000
11.78 42.00000 2.25634 1614.00000 14486.00000
11.80 44.00000 2.26584 1674.00000 14522.00000
11.82 42.00000 2.27533 1682.00000 14558.00000
11.84 32.00000 2.28482 1802.00000 14854.00000
11.86 34.00000 2.28482 1760.00000 15006.00000
11.88 28.00000 2.28482 1744.00000 15154.00000
11.90 20.00000 2.27533 1630.00000 15070.00000
11.92 18.00000 2.27533 1666.00000 14946.00000
11.94 32.00000 2.26584 1690.00000 14976.00000
11.96 38.00000 2.26584 1682.00000 15114.00000
11.98 36.00000 2.26584 1664.00000 15212.00000
12.00 32.00000 2.25634 1634.00000 14936.00000
12.02 24.00000 2.25634 1682.00000 14770.00000
12.04 16.00000 2.25634 1746.00000 14652.00000
12.06 16.00000 2.25634 1650.00000 14658.00000
12.08 16.00000 2.25634 1680.00000 14658.00000
12.10 26.00000 2.26584 1640.00000 14664.00000
12.12 30.00000 2.27533 1614.00000 14594.00000
12.14 26.00000 2.28482 1614.00000 14796.00000
12.16 36.00000 2.27533 1578.00000 14928.00000
12.18 44.00000 2.26584 1554.00000 14976.00000
12.20 46.00000 2.26584 1524.00000 14866.00000
12.22 26.00000 2.25634 1578.00000 14780.00000
12.24 24.00000 2.26584 1542.00000 14744.00000
12.26 18.00000 2.26584 1546.00000 14842.00000
12.28 26.00000 2.27533 1634.00000 14906.00000
12.30 24.00000 2.27533 1668.00000 14844.00000
12.32 36.00000 2.26584 1570.00000 14936.00000
12.34 32.00000 2.27533 1574.00000 14546.00000
12.36 24.00000 2.25634 1590.00000 14636.00000
12.38 22.00000 2.25634 1624.00000 14624.00000
12.40 42.00000 2.26584 1614.00000 14684.00000
12.42 50.00000 2.26584 1574.00000 14708.00000
12.44 34.00000 2.27533 1508.00000 14738.00000
12.46 22.00000 2.27533 1484.00000 14748.00000
12.48 28.00000 2.26584 1548.00000 14824.00000
12.50 38.00000 2.30251 1612.00000 14922.00000
12.52 46.00000 2.26584 1588.00000 15030.00000
12.54 38.00000 2.27533 1612.00000 14986.00000
12.56 40.00000 2.27533 1598.00000 15082.00000
12.58 42.00000 2.25634 1626.00000 14894.00000
12.60 50.00000 2.25634 1640.00000 14752.00000
12.62 42.00000 2.23735 1694.00000 14840.00000
12.64 30.00000 2.25634 1770.00000 14968.00000
12.66 26.00000 2.24685 1762.00000 15198.00000
12.68 34.00000 2.26584 1744.00000 15108.00000
12.70 38.00000 2.25634 1710.00000 14938.00000
12.72 42.00000 2.26584 1690.00000 14940.00000
12.74 28.00000 2.24685 1714.00000 15184.00000
12.76 34.00000 2.26584 1724.00000 15040.00000
12.78 24.00000 2.24685 1728.00000 14988.00000
12.80 22.00000 2.26584 1700.00000 14818.00000
12.82 10.00000 2.25634 1674.00000 14766.00000
12.84 16.00000 2.25634 1646.00000 14752.00000
12.86 30.00000 2.25634 1598.00000 14640.00000
12.88 30.00000 2.26584 1626.00000 14718.00000
12.90 26.00000 2.25634 1732.00000 14766.00000
12.92 24.00000 2.26584 1776.00000 14936.00000
12.94 30.00000 2.27533 1790.00000 15146.00000
12.96 40.00000 2.28482 1730.00000 15224.00000
12.98 40.00000 2.28482 1762.00000 15226.00000
13.00 58.00000 2.27533 1764.00000 15134.00000
13.02 44.00000 2.26584 1776.00000 15094.00000
13.04 30.00000 2.24685 1776.00000 15230.00000
13.06 14.00000 2.24685 1720.00000 15266.00000
13.08 20.00000 2.25634 1752.00000 15122.00000
13.10 40.00000 2.27533 1706.00000 14912.00000
13.12 54.00000 2.26584 1712.00000 14838.00000
13.14 44.00000 2.25634 1712.00000 14840.00000
13.16 38.00000 2.24685 1722.00000 15336.00000
13.18 34.00000 2.24685 1728.00000 15230.00000
13.20 38.00000 2.25634 1788.00000 15200.00000
13.22 36.00000 2.26584 1754.00000 15030.00000
13.24 40.00000 2.27533 1732.00000 14990.00000
13.26 42.00000 2.26584 1638.00000 14782.00000
13.28 44.00000 2.27533 1644.00000 14800.00000
13.30 40.00000 2.27533 1646.00000 14746.00000
13.32 36.00000 2.27533 1618.00000 14804.00000
13.34 34.00000 2.26584 1600.00000 14876.00000
13.36 24.00000 2.25634 1632.00000 14972.00000
13.38 28.00000 2.24685 1612.00000 14930.00000
13.40 40.00000 2.24685 1634.00000 14860.00000
13.42 52.00000 2.24685 1624.00000 14594.00000
13.44 50.00000 2.25634 1680.00000 14618.00000
13.46 58.00000 2.27533 1636.00000 14550.00000
13.48 56.00000 2.27533 1594.00000 14750.00000
13.50 58.00000 2.27533 1668.00000 15082.00000
13.52 42.00000 2.25634 1656.00000 15260.00000
13.54 46.00000 2.25634 1682.00000 15348.00000
13.56 48.00000 2.27533 1646.00000 15374.00000
13.58 44.00000 2.27533 1604.00000 15420.00000
13.60 42.00000 2.27533 1586.00000 15290.00000
13.62 36.00000 2.25634 1688.00000 15024.00000
13.64 48.00000 2.26584 1726.00000 15132.00000
13.66 40.00000 2.27533 1756.00000 15008.00000
13.68 46.00000 2.26584 1760.00000 15118.00000
13.70 40.00000 2.25634 1732.00000 15218.00000
13.72 38.00000 2.25634 1768.00000 15460.00000
13.74 34.00000 2.27533 1718.00000 15492.00000
13.76 24.00000 2.27533 1702.00000 15290.00000
13.78 34.00000 2.26584 1624.00000 14836.00000
13.80 30.00000 2.25634 1678.00000 15014.00000
13.82 22.00000 2.25634 1746.00000 15322.00000
13.84 18.00000 2.26584 1806.00000 15332.00000
13.86 18.00000 2.26584 1772.00000 15228.00000
13.88 26.00000 2.25634 1782.00000 15214.00000
13.90 26.00000 2.26584 1760.00000 15018.00000
13.92 26.00000 2.26584 1760.00000 14932.00000
13.94 30.00000 2.25634 1750.00000 14988.00000
13.96 28.00000 2.25634 1784.00000 15144.00000
13.98 30.00000 2.24685 1836.00000 15384.00000
14.00 32.00000 2.25634 1934.00000 15152.00000
14.02 32.00000 2.27533 1920.00000 15100.00000
14.04 30.00000 2.26584 1880.00000 14960.00000
14.06 36.00000 2.27533 1824.00000 15256.00000
14.08 36.00000 2.24685 1818.00000 15362.00000
14.10 42.00000 2.25634 1840.00000 15502.00000
14.12 54.00000 2.25634 1834.00000 15526.00000
14.14 48.00000 2.25634 1860.00000 15816.00000
14.16 50.00000 2.25634 1894.00000 15820.00000
14.18 34.00000 2.25634 1892.00000 15630.00000
14.20 32.00000 2.26584 1800.00000 15550.00000
14.22 34.00000 2.25634 1790.00000 15528.00000
14.24 34.00000 2.26584 1730.00000 15650.00000
14.26 32.00000 2.25634 1768.00000 15448.00000
14.28 28.00000 2.25634 1746.00000 15588.00000
14.30 26.00000 2.25634 1748.00000 15412.00000
14.32 32.00000 2.26584 1748.00000 15482.00000
