~Version
VERS. 2.0
WRAP. NO
~Well
STRT.M 0.27
STOP.M 59.83
STEP.M 0.02
NULL. -999.0
WELL. SYNTH_B
DATE. 2025-12-31
~Curve
DEPT.M
GR.CPS
CL.IN
LD.CPS
SD.CPS
~A
0.24 52.00000 -999.00000 -999.00000 -999.00000
0.26 36.00000 -999.00000 -999.00000 -999.00000
0.28 38.00000 -999.00000 -999.00000 -999.00000
0.30 32.00000 -999.00000 -999.00000 -999.00000
0.32 42.00000 -999.00000 -999.00000 -999.00000
0.34 36.00000 -999.00000 -999.00000 -999.00000
0.36 26.00000 -999.00000 -999.00000 -999.00000
0.38 18.00000 -999.00000 -999.00000 -999.00000
0.40 22.00000 -999.00000 -999.00000 -999.00000
0.42 34.00000 -999.00000 -999.00000 -999.00000
0.44 56.00000 -999.00000 -999.00000 -999.00000
0.46 66.00000 -999.00000 -999.00000 -999.00000
0.48 56.00000 -999.00000 -999.00000 -999.00000
0.50 44.00000 -999.00000 -999.00000 -999.00000
0.52 48.00000 -999.00000 -999.00000 -999.00000
0.54 56.00000 -999.00000 -999.00000 -999.00000
0.56 62.00000 -999.00000 -999.00000 -999.00000
0.58 72.00000 -999.00000 -999.00000 -999.00000
0.60 50.00000 -999.00000 -999.00000 -999.00000
0.62 50.00000 -999.00000 -999.00000 -999.00000
0.64 28.00000 -999.00000 -999.00000 -999.00000
0.66 36.00000 -999.00000 -999.00000 -999.00000
0.68 36.00000 -999.00000 -999.00000 -999.00000
0.70 32.00000 -999.00000 -999.00000 -999.00000
0.72 26.00000 -999.00000 -999.00000 -999.00000
0.74 40.00000 -999.00000 -999.00000 -999.00000
0.76 46.00000 -999.00000 -999.00000 -999.00000
0.78 46.00000 -999.00000 -999.00000 -999.00000
0.80 46.00000 -999.00000 -999.00000 -999.00000
0.82 44.00000 -999.00000 -999.00000 -999.00000
0.84 50.00000 -999.00000 -999.00000 -999.00000
0.86 44.00000 -999.00000 -999.00000 -999.00000
0.88 52.00000 -999.00000 -999.00000 -999.00000
0.90 48.00000 -999.00000 -999.00000 -999.00000
0.92 48.00000 -999.00000 -999.00000 -999.00000
0.94 36.00000 -999.00000 -999.00000 -999.00000
0.96 30.00000 -999.00000 -999.00000 -999.00000
0.98 30.00000 -999.00000 -999.00000 -999.00000
1.00 28.00000 -999.00000 -999.00000 -999.00000
1.02 42.00000 -999.00000 -999.00000 -999.00000
1.04 44.00000 -999.00000 -999.00000 -999.00000
1.06 34.00000 -999.00000 -999.00000 -999.00000
1.08 34.00000 -999.00000 -999.00000 -999.00000
1.10 42.00000 -999.00000 -999.00000 -999.00000
1.12 56.00000 -999.00000 -999.00000 -999.00000
1.14 42.00000 -999.00000 -999.00000 -999.00000
1.16 44.00000 -999.00000 -999.00000 -999.00000
1.18 34.00000 -999.00000 -999.00000 -999.00000
1.20 36.00000 -999.00000 -999.00000 -999.00000
1.22 38.00000 -999.00000 -999.00000 -999.00000
1.24 28.00000 -999.00000 -999.00000 -999.00000
1.26 30.00000 -999.00000 -999.00000 -999.00000
1.28 30.00000 -999.00000 -999.00000 -999.00000
1.30 38.00000 -999.00000 -999.00000 -999.00000
1.32 42.00000 -999.00000 -999.00000 -999.00000
1.34 42.00000 -999.00000 -999.00000 -999.00000
1.36 36.00000 -999.00000 -999.00000 -999.00000
1.38 24.00000 -999.00000 -999.00000 -999.00000
1.40 24.00000 -999.00000 -999.00000 -999.00000
1.42 18.00000 -999.00000 -999.00000 -999.00000
1.44 16.00000 -999.00000 -999.00000 -999.00000
1.46 20.00000 -999.00000 -999.00000 -999.00000
1.48 34.00000 -999.00000 -999.00000 -999.00000
1.50 44.00000 -999.00000 -999.00000 -999.00000
1.52 46.00000 -999.00000 -999.00000 -999.00000
1.54 38.00000 -999.00000 -999.00000 -999.00000
1.56 32.00000 -999.00000 -999.00000 -999.00000
1.58 38.00000 -999.00000 -999.00000 -999.00000
1.60 36.00000 -999.00000 -999.00000 -999.00000
1.62 36.00000 -999.00000 -999.00000 -999.00000
1.64 26.00000 -999.00000 -999.00000 -999.00000
1.66 34.00000 -999.00000 -999.00000 -999.00000
1.68 30.00000 -999.00000 -999.00000 -999.00000
1.70 36.00000 -999.00000 -999.00000 -999.00000
1.72 24.00000 -999.00000 -999.00000 -999.00000
1.74 24.00000 3.08229 -999.00000 -999.00000
1.76 26.00000 3.09178 -999.00000 -999.00000
1.78 30.00000 3.09178 -999.00000 -999.00000
1.80 44.00000 3.10128 -999.00000 -999.00000
1.82 52.00000 3.09178 -999.00000 -999.00000
1.84 36.00000 3.09178 -999.00000 -999.00000
1.86 28.00000 3.09178 -999.00000 -999.00000
1.88 30.00000 3.10128 -999.00000 -999.00000
1.90 40.00000 3.10128 -999.00000 -999.00000
1.92 36.00000 3.10128 -999.00000 -999.00000
1.94 26.00000 3.09178 -999.00000 -999.00000
1.96 28.00000 3.09178 -999.00000 -999.00000
1.98 32.00000 3.09178 -999.00000 -999.00000
2.00 26.00000 3.08229 -999.00000 -999.00000
2.02 26.00000 3.07279 -999.00000 -999.00000
2.04 16.00000 3.06330 -999.00000 -999.00000
2.06 24.00000 3.07279 -999.00000 -999.00000
2.08 26.00000 3.07279 -999.00000 -999.00000
2.10 28.00000 3.08229 -999.00000 -999.00000
2.12 30.00000 3.07279 -999.00000 -999.00000
2.14 20.00000 3.08229 -999.00000 -999.00000
2.16 18.00000 3.09178 -999.00000 -999.00000
2.18 16.00000 3.10128 -999.00000 -999.00000
2.20 22.00000 3.07279 -999.00000 -999.00000
2.22 22.00000 3.07279 -999.00000 -999.00000
2.24 16.00000 3.07279 -999.00000 -999.00000
2.26 16.00000 3.09178 -999.00000 -999.00000
2.28 12.00000 3.08229 3436.00000 -999.00000
2.30 16.00000 3.06330 3466.00000 -999.00000
2.32 14.00000 3.05381 3488.00000 -999.00000
2.34 12.00000 3.06330 3502.00000 -999.00000
2.36 16.00000 3.08229 3536.00000 -999.00000
2.38 20.00000 3.09178 3530.00000 18386.00000
2.40 26.00000 3.07279 3398.00000 18260.00000
2.42 20.00000 3.07279 3264.00000 18184.00000
2.44 26.00000 3.07279 3102.00000 18152.00000
2.46 18.00000 3.09178 3042.00000 17808.00000
2.48 12.00000 3.09178 2804.00000 17418.00000
2.50 18.00000 3.08229 2642.00000 17190.00000
2.52 20.00000 3.07279 2706.00000 17168.00000
2.54 16.00000 3.07279 2668.00000 17230.00000
2.56 12.00000 3.09178 2546.00000 17046.00000
2.58 10.00000 3.08229 2482.00000 16594.00000
2.60 12.00000 3.07279 2274.00000 16264.00000
2.62 10.00000 3.07279 2222.00000 16140.00000
2.64 8.00000 3.09178 2264.00000 15754.00000
2.66 6.00000 3.07279 2254.00000 15658.00000
2.68 14.00000 3.07279 2216.00000 15704.00000
2.70 16.00000 3.07279 2082.00000 15506.00000
2.72 18.00000 3.08229 2038.00000 15500.00000
2.74 20.00000 3.08229 2008.00000 15660.00000
2.76 22.00000 3.08229 2030.00000 15600.00000
2.78 24.00000 3.08229 2036.00000 15534.00000
2.80 16.00000 3.08229 1988.00000 15398.00000
2.82 14.00000 3.08229 1968.00000 15716.00000
2.84 18.00000 3.08229 1932.00000 15626.00000
2.86 18.00000 3.07279 1894.00000 15840.00000
2.88 16.00000 3.08229 1868.00000 15708.00000
2.90 10.00000 3.07279 1850.00000 15792.00000
2.92 10.00000 3.07279 1814.00000 15778.00000
2.94 8.00000 3.07279 1802.00000 15548.00000
2.96 4.00000 3.07279 1830.00000 15340.00000
2.98 8.00000 3.07279 1896.00000 15244.00000
3.00 12.00000 3.06330 1926.00000 15314.00000
3.02 12.00000 3.06330 1946.00000 15510.00000
3.04 10.00000 3.07279 1882.00000 15700.00000
3.06 6.00000 3.08229 1860.00000 15770.00000
3.08 4.00000 3.08229 1834.00000 15720.00000
3.10 6.00000 3.06330 1862.00000 15556.00000
3.12 8.00000 3.06330 1858.00000 15434.00000
3.14 8.00000 3.07279 1826.00000 15388.00000
3.16 14.00000 3.07279 1896.00000 15384.00000
3.18 20.00000 3.06330 1870.00000 15500.00000
3.20 12.00000 3.06330 1834.00000 15636.00000
3.22 12.00000 3.06330 1790.00000 15730.00000
3.24 10.00000 3.06330 1750.00000 15674.00000
3.26 14.00000 3.07279 1768.00000 15356.00000
3.28 24.00000 3.08229 1824.00000 15260.00000
3.30 24.00000 3.08229 1874.00000 15284.00000
3.32 22.00000 3.08229 1898.00000 15190.00000
3.34 24.00000 3.08229 1842.00000 15164.00000
3.36 26.00000 3.08229 1926.00000 15344.00000
3.38 28.00000 3.07279 1950.00000 15420.00000
3.40 22.00000 3.07279 1972.00000 15454.00000
3.42 20.00000 3.07279 1842.00000 15482.00000
3.44 18.00000 3.07279 1834.00000 15388.00000
3.46 12.00000 3.08229 1814.00000 15316.00000
3.48 14.00000 3.07279 1886.00000 15276.00000
3.50 16.00000 3.07279 1892.00000 15274.00000
3.52 16.00000 3.05381 1932.00000 15128.00000
3.54 20.00000 3.05381 1882.00000 15452.00000
3.56 14.00000 3.04431 1894.00000 15368.00000
3.58 14.00000 3.04431 1940.00000 15362.00000
3.60 22.00000 3.04431 1940.00000 15246.00000
3.62 24.00000 3.05381 1946.00000 15264.00000
3.64 26.00000 3.06330 1882.00000 15606.00000
3.66 18.00000 3.06330 1844.00000 15598.00000
3.68 26.00000 3.07279 1810.00000 15702.00000
3.70 20.00000 3.08229 1814.00000 15658.00000
3.72 16.00000 3.08229 1828.00000 15842.00000
3.74 10.00000 3.06330 1872.00000 15812.00000
